[
  {
    "name": "全家鴻啟店",
    "address": "台北市中正區忠孝西路一段１００號",
    "zipCode": 100,
    "latitude": 25.047165,
    "longitude": 121.512733,
    "twoFlavors": true,
    "specialShape": false
  },
  {
    "name": "全家台北地下街店",
    "address": "台北市中正區忠孝西路一段４７號Ｂ１（ＫＢ１１２）",
    "zipCode": 100,
    "latitude": 25.04691,
    "longitude": 121.516746,
    "twoFlavors": true,
    "specialShape": false
  },
  {
    "name": "全家北盛店",
    "address": "台北市中正區青島西路１３號",
    "zipCode": 100,
    "latitude": 25.04503,
    "longitude": 121.517587,
    "twoFlavors": false,
    "specialShape": false
  },
  {
    "name": "全家南陽店",
    "address": "台北市中正區信陽街１５號",
    "zipCode": 100,
    "latitude": 25.044774,
    "longitude": 121.516203,
    "twoFlavors": false,
    "specialShape": false
  },
  {
    "name": "全家新德店",
    "address": "台北市中正區八德路一段４３巷２號",
    "zipCode": 100,
    "latitude": 25.044475,
    "longitude": 121.531597,
    "twoFlavors": false,
    "specialShape": false
  },
  {
    "name": "全家博愛店",
    "address": "台北市中正區博愛路６３號１Ｆ＋Ｂ１Ｆ",
    "zipCode": 100,
    "latitude": 25.044256,
    "longitude": 121.511551,
    "twoFlavors": false,
    "specialShape": false
  },
  {
    "name": "全家重慶店",
    "address": "台北市中正區重慶南路一段５８號",
    "zipCode": 100,
    "latitude": 25.043947,
    "longitude": 121.51306,
    "twoFlavors": true,
    "specialShape": false
  },
  {
    "name": "全家青島東路店",
    "address": "台北市中正區青島東路７之４號１樓",
    "zipCode": 100,
    "latitude": 25.043868,
    "longitude": 121.522461,
    "twoFlavors": false,
    "specialShape": false
  },
  {
    "name": "全家福邦店",
    "address": "台北市中正區杭州南路一段１９號１Ｆ",
    "zipCode": 100,
    "latitude": 25.042543,
    "longitude": 121.526566,
    "twoFlavors": true,
    "specialShape": false
  },
  {
    "name": "全家衡慶店",
    "address": "台北市中正區衡陽路７號１樓部分（如附圖）",
    "zipCode": 100,
    "latitude": 25.042415,
    "longitude": 121.513718,
    "twoFlavors": false,
    "specialShape": false
  },
  {
    "name": "全家寶慶店",
    "address": "台北市中正區延平南路１１１號",
    "zipCode": 100,
    "latitude": 25.041885,
    "longitude": 121.509561,
    "twoFlavors": false,
    "specialShape": false
  },
  {
    "name": "全家忠孝新生店",
    "address": "台北市中正區忠孝東路二段１３４巷８號１樓及地下室",
    "zipCode": 100,
    "latitude": 25.041828,
    "longitude": 121.53158,
    "twoFlavors": false,
    "specialShape": false
  },
  {
    "name": "全家齊東店",
    "address": "台北市中正區濟南路二段３－７號１樓",
    "zipCode": 100,
    "latitude": 25.041596,
    "longitude": 121.526814,
    "twoFlavors": false,
    "specialShape": false
  },
  {
    "name": "全家台六宿舍店",
    "address": "台北市中正區徐州路２之２號１Ｆ",
    "zipCode": 100,
    "latitude": 25.041041,
    "longitude": 121.521497,
    "twoFlavors": false,
    "specialShape": false
  },
  {
    "name": "全家林森南路店",
    "address": "台北市中正區林森南路５７．５９號",
    "zipCode": 100,
    "latitude": 25.039944,
    "longitude": 121.522046,
    "twoFlavors": false,
    "specialShape": false
  },
  {
    "name": "全家文祥店",
    "address": "台北市中正區杭州南路一段１４７號",
    "zipCode": 100,
    "latitude": 25.035943,
    "longitude": 121.524657,
    "twoFlavors": false,
    "specialShape": false
  },
  {
    "name": "全家新惠安店",
    "address": "台北市中正區中華路二段３０７巷４６號",
    "zipCode": 100,
    "latitude": 25.02953,
    "longitude": 121.506467,
    "twoFlavors": false,
    "specialShape": false
  },
  {
    "name": "全家福昌店",
    "address": "台北市中正區福州街１０號１樓（部份）",
    "zipCode": 100,
    "latitude": 25.029407,
    "longitude": 121.519789,
    "twoFlavors": false,
    "specialShape": false
  },
  {
    "name": "全家羅安店",
    "address": "台北市中正區羅斯福路二段１４０號１樓",
    "zipCode": 100,
    "latitude": 25.025919,
    "longitude": 121.52301,
    "twoFlavors": false,
    "specialShape": false
  },
  {
    "name": "全家辛館店",
    "address": "台北市中正區辛亥路一段１３號",
    "zipCode": 100,
    "latitude": 25.019074,
    "longitude": 121.527913,
    "twoFlavors": false,
    "specialShape": false
  },
  {
    "name": "全家羅館店",
    "address": "台北市中正區羅斯福路三段２４４巷７號１樓",
    "zipCode": 100,
    "latitude": 25.016935,
    "longitude": 121.530802,
    "twoFlavors": false,
    "specialShape": false
  },
  {
    "name": "全家公館捷運店",
    "address": "台北市中正區羅斯福路四段４２號１樓",
    "zipCode": 100,
    "latitude": 25.015188,
    "longitude": 121.533526,
    "twoFlavors": false,
    "specialShape": false
  },
  {
    "name": "全家文盛店",
    "address": "台北市中正區汀州路三段１７３號",
    "zipCode": 100,
    "latitude": 25.015119,
    "longitude": 121.532452,
    "twoFlavors": false,
    "specialShape": false
  },
  {
    "name": "全家公館店",
    "address": "台北市中正區汀州路三段２５１號",
    "zipCode": 100,
    "latitude": 25.013659,
    "longitude": 121.534399,
    "twoFlavors": false,
    "specialShape": false
  },
  {
    "name": "全家慶國店",
    "address": "台北市大同區重慶北路三段２７８之２號１樓",
    "zipCode": 103,
    "latitude": 25.072793,
    "longitude": 121.513584,
    "twoFlavors": false,
    "specialShape": false
  },
  {
    "name": "全家福澤店",
    "address": "台北市大同區民權西路１４６號",
    "zipCode": 103,
    "latitude": 25.062778,
    "longitude": 121.515817,
    "twoFlavors": false,
    "specialShape": false
  },
  {
    "name": "全家迪化店",
    "address": "台北市大同區迪化街一段５０號１樓",
    "zipCode": 103,
    "latitude": 25.055128,
    "longitude": 121.50993,
    "twoFlavors": false,
    "specialShape": false
  },
  {
    "name": "全家日新店",
    "address": "台北市大同區承德路二段３９＆４１號１樓",
    "zipCode": 103,
    "latitude": 25.0550369830347,
    "longitude": 121.518404188858,
    "twoFlavors": false,
    "specialShape": false
  },
  {
    "name": "全家迪化街店",
    "address": "台北市大同區迪化街一段４２號１、２樓",
    "zipCode": 103,
    "latitude": 25.054903,
    "longitude": 121.50998,
    "twoFlavors": false,
    "specialShape": false
  },
  {
    "name": "全家金慶店",
    "address": "台北市大同區南京西路３０８號１樓",
    "zipCode": 103,
    "latitude": 25.053915,
    "longitude": 121.513337,
    "twoFlavors": false,
    "specialShape": false
  },
  {
    "name": "全家京鋒店",
    "address": "台北市大同區南京西路６１號１樓",
    "zipCode": 103,
    "latitude": 25.053089,
    "longitude": 121.519086,
    "twoFlavors": false,
    "specialShape": false
  },
  {
    "name": "全家京承店",
    "address": "台北市大同區承德路一段２９號１樓",
    "zipCode": 103,
    "latitude": 25.050731,
    "longitude": 121.517227,
    "twoFlavors": false,
    "specialShape": false
  },
  {
    "name": "全家大直店",
    "address": "台北市中山區大直街３３巷１號",
    "zipCode": 104,
    "latitude": 25.082196,
    "longitude": 121.546504,
    "twoFlavors": false,
    "specialShape": false
  },
  {
    "name": "全家直學店",
    "address": "台北市中山區大直街１１號",
    "zipCode": 104,
    "latitude": 25.080829,
    "longitude": 121.546531,
    "twoFlavors": false,
    "specialShape": false
  },
  {
    "name": "全家美麗店",
    "address": "台北市中山區樂群二路１４２號１樓",
    "zipCode": 104,
    "latitude": 25.079748,
    "longitude": 121.556824,
    "twoFlavors": false,
    "specialShape": false
  },
  {
    "name": "全家新林森店",
    "address": "台北市中山區林森北路６３０號１樓",
    "zipCode": 104,
    "latitude": 25.067598,
    "longitude": 121.52559,
    "twoFlavors": false,
    "specialShape": false
  },
  {
    "name": "全家民族店",
    "address": "台北市中山區民族東路４１０巷２３弄２４號",
    "zipCode": 104,
    "latitude": 25.066772,
    "longitude": 121.539542,
    "twoFlavors": false,
    "specialShape": false
  },
  {
    "name": "全家松國店",
    "address": "台北市中山區松江路４７３號１樓",
    "zipCode": 104,
    "latitude": 25.066763,
    "longitude": 121.533457,
    "twoFlavors": false,
    "specialShape": false
  },
  {
    "name": "全家新德城店",
    "address": "台北市中山區德惠街１６－７號",
    "zipCode": 104,
    "latitude": 25.066625,
    "longitude": 121.524672,
    "twoFlavors": false,
    "specialShape": false
  },
  {
    "name": "全家葵爾特店",
    "address": "台北市中山區中山北路三段４５之１號１樓",
    "zipCode": 104,
    "latitude": 25.066335,
    "longitude": 121.522532,
    "twoFlavors": false,
    "specialShape": false
  },
  {
    "name": "全家欣濱江店",
    "address": "台北市中山區建國北路三段１０９號１樓",
    "zipCode": 104,
    "latitude": 25.066304,
    "longitude": 121.536061,
    "twoFlavors": false,
    "specialShape": false
  },
  {
    "name": "全家新復店",
    "address": "台北市中山區復興北路５１４巷３５號",
    "zipCode": 104,
    "latitude": 25.066095,
    "longitude": 121.542588,
    "twoFlavors": true,
    "specialShape": false
  },
  {
    "name": "全家新農店",
    "address": "台北市中山區恆安里農安街２６之３號一樓",
    "zipCode": 104,
    "latitude": 25.064808,
    "longitude": 121.526198,
    "twoFlavors": false,
    "specialShape": false
  },
  {
    "name": "全家農安店",
    "address": "台北市中山區農安街２４９號",
    "zipCode": 104,
    "latitude": 25.06479,
    "longitude": 121.534926,
    "twoFlavors": true,
    "specialShape": false
  },
  {
    "name": "全家雙城店",
    "address": "台北市中山區雙城街１２之１號",
    "zipCode": 104,
    "latitude": 25.064541,
    "longitude": 121.524221,
    "twoFlavors": false,
    "specialShape": false
  },
  {
    "name": "全家江寧店",
    "address": "台北市中山區民權東路三段６４號１樓",
    "zipCode": 104,
    "latitude": 25.0622,
    "longitude": 121.542647,
    "twoFlavors": false,
    "specialShape": false
  },
  {
    "name": "全家金復店",
    "address": "台北市中山區復興北路３５６號１樓",
    "zipCode": 104,
    "latitude": 25.060392,
    "longitude": 121.543957,
    "twoFlavors": false,
    "specialShape": false
  },
  {
    "name": "全家錦富店",
    "address": "台北市中山區林森北路４２８號１樓",
    "zipCode": 104,
    "latitude": 25.060015,
    "longitude": 121.525412,
    "twoFlavors": false,
    "specialShape": false
  },
  {
    "name": "全家林慶店",
    "address": "台北市中山區林森北路３７６號１樓",
    "zipCode": 104,
    "latitude": 25.057878,
    "longitude": 121.525365,
    "twoFlavors": true,
    "specialShape": false
  },
  {
    "name": "全家東南店",
    "address": "台北市中山區中山北路二段６０號",
    "zipCode": 104,
    "latitude": 25.056609,
    "longitude": 121.522565,
    "twoFlavors": false,
    "specialShape": false
  },
  {
    "name": "全家興安店",
    "address": "台北市中山區興安街５７號",
    "zipCode": 104,
    "latitude": 25.056201,
    "longitude": 121.542324,
    "twoFlavors": true,
    "specialShape": false
  },
  {
    "name": "全家中賓店",
    "address": "台北市中山區中山里中山北路二段５９之３號１樓",
    "zipCode": 104,
    "latitude": 25.056037,
    "longitude": 121.522976,
    "twoFlavors": true,
    "specialShape": false
  },
  {
    "name": "全家長春店",
    "address": "台北市中山區長春路４８號１樓",
    "zipCode": 104,
    "latitude": 25.054812,
    "longitude": 121.525761,
    "twoFlavors": false,
    "specialShape": false
  },
  {
    "name": "全家松茂店",
    "address": "台北市中山區松江路１２７之１號１樓及地下室",
    "zipCode": 104,
    "latitude": 25.053603,
    "longitude": 121.533337,
    "twoFlavors": false,
    "specialShape": false
  },
  {
    "name": "全家南京復興店",
    "address": "台北市中山區復興北路１５４號１Ｆ",
    "zipCode": 104,
    "latitude": 25.053173,
    "longitude": 121.543789,
    "twoFlavors": false,
    "specialShape": false
  },
  {
    "name": "全家柯達飯店",
    "address": "台北市中山區中山北路二段１１巷１號、３號",
    "zipCode": 104,
    "latitude": 25.052871,
    "longitude": 121.523174,
    "twoFlavors": false,
    "specialShape": false
  },
  {
    "name": "全家龍京店",
    "address": "台北市中山區龍江路１０２號１樓",
    "zipCode": 104,
    "latitude": 25.052669,
    "longitude": 121.540322,
    "twoFlavors": false,
    "specialShape": false
  },
  {
    "name": "全家中山捷運站店",
    "address": "台北市大同區南京西路１６號Ｂ１",
    "zipCode": 104,
    "latitude": 25.052442,
    "longitude": 121.520266,
    "twoFlavors": false,
    "specialShape": false
  },
  {
    "name": "全家建國北路店",
    "address": "台北市中山區建國北路一段１４６號１樓",
    "zipCode": 104,
    "latitude": 25.051262,
    "longitude": 121.536356,
    "twoFlavors": false,
    "specialShape": false
  },
  {
    "name": "全家六條通店",
    "address": "台北市中山區中山北路一段１０５巷２２號１樓及地下層",
    "zipCode": 104,
    "latitude": 25.05033,
    "longitude": 121.524574,
    "twoFlavors": true,
    "specialShape": false
  },
  {
    "name": "全家長松店",
    "address": "台北市中山區松江路５０號１樓部份",
    "zipCode": 104,
    "latitude": 25.048275,
    "longitude": 121.532721,
    "twoFlavors": false,
    "specialShape": false
  },
  {
    "name": "全家遼寧店",
    "address": "台北市中山區長安東路二段２１６號",
    "zipCode": 104,
    "latitude": 25.048204,
    "longitude": 121.542416,
    "twoFlavors": true,
    "specialShape": false
  },
  {
    "name": "全家復德店",
    "address": "台北市中山區復興南路一段４２號１樓",
    "zipCode": 104,
    "latitude": 25.045308,
    "longitude": 121.543662,
    "twoFlavors": true,
    "specialShape": false
  },
  {
    "name": "全家冠德店",
    "address": "台北市松山區民權東路３段１７３號",
    "zipCode": 105,
    "latitude": 25.062277,
    "longitude": 121.547623,
    "twoFlavors": false,
    "specialShape": false
  },
  {
    "name": "全家富錦店",
    "address": "台北市松山區新益里富錦街５２９號一樓",
    "zipCode": 105,
    "latitude": 25.061276,
    "longitude": 121.565374,
    "twoFlavors": false,
    "specialShape": false
  },
  {
    "name": "全家東豐店",
    "address": "台北市松山區民生東路五段３７號",
    "zipCode": 105,
    "latitude": 25.058545,
    "longitude": 121.55689,
    "twoFlavors": false,
    "specialShape": false
  },
  {
    "name": "全家富泰店",
    "address": "台北市松山區民生東路五段２０４－３號一樓",
    "zipCode": 105,
    "latitude": 25.058297,
    "longitude": 121.564708,
    "twoFlavors": false,
    "specialShape": false
  },
  {
    "name": "全家中央店",
    "address": "台北市松山區民生東路四段９５號",
    "zipCode": 105,
    "latitude": 25.058141,
    "longitude": 121.551972,
    "twoFlavors": false,
    "specialShape": false
  },
  {
    "name": "全家民康店",
    "address": "台北市松山區健康路２８５號１樓",
    "zipCode": 105,
    "latitude": 25.054369,
    "longitude": 121.564113,
    "twoFlavors": false,
    "specialShape": false
  },
  {
    "name": "全家宏大店",
    "address": "台北市松山區敦化北路１５５巷３號１樓",
    "zipCode": 105,
    "latitude": 25.05424,
    "longitude": 121.549813,
    "twoFlavors": false,
    "specialShape": false
  },
  {
    "name": "全家康寶店",
    "address": "台北市松山區健康路４００號１樓",
    "zipCode": 105,
    "latitude": 25.054091,
    "longitude": 121.566094,
    "twoFlavors": false,
    "specialShape": false
  },
  {
    "name": "全家松醫店",
    "address": "台北市松山區東光里健康路１５８號",
    "zipCode": 105,
    "latitude": 25.053463,
    "longitude": 121.557897,
    "twoFlavors": true,
    "specialShape": false
  },
  {
    "name": "全家慶城店",
    "address": "台北市松山區中正里慶城街８號",
    "zipCode": 105,
    "latitude": 25.052639,
    "longitude": 121.544776,
    "twoFlavors": false,
    "specialShape": false
  },
  {
    "name": "全家新寶店",
    "address": "台北市松山區南京東路５段２９１巷１８號",
    "zipCode": 105,
    "latitude": 25.052341,
    "longitude": 121.566056,
    "twoFlavors": false,
    "specialShape": false
  },
  {
    "name": "全家京萬店",
    "address": "台北市南京東路三段３３３號",
    "zipCode": 105,
    "latitude": 25.051994,
    "longitude": 121.547388,
    "twoFlavors": false,
    "specialShape": false
  },
  {
    "name": "全家京兆店",
    "address": "台北市松山區南京東路四段１３７號壹樓",
    "zipCode": 105,
    "latitude": 25.051795,
    "longitude": 121.555296,
    "twoFlavors": false,
    "specialShape": false
  },
  {
    "name": "全家小巨蛋二店",
    "address": "台北市松山區南京東路四段２號１樓",
    "zipCode": 105,
    "latitude": 25.051356,
    "longitude": 121.549954,
    "twoFlavors": true,
    "specialShape": false
  },
  {
    "name": "全家新京吉店",
    "address": "台北市松山區南京東路五段１９４號",
    "zipCode": 105,
    "latitude": 25.05119,
    "longitude": 121.563848,
    "twoFlavors": false,
    "specialShape": false
  },
  {
    "name": "全家台發店",
    "address": "台北市松山區八德路三段３０號壹樓（如附圖）",
    "zipCode": 105,
    "latitude": 25.04811,
    "longitude": 121.551527,
    "twoFlavors": true,
    "specialShape": false
  },
  {
    "name": "全家新德光店",
    "address": "台北市松山區光復南路３２巷４６－４號",
    "zipCode": 105,
    "latitude": 25.046203,
    "longitude": 121.554312,
    "twoFlavors": true,
    "specialShape": false
  },
  {
    "name": "全家成福店",
    "address": "台北市南港區成福路４４號１樓",
    "zipCode": 105,
    "latitude": 25.044939,
    "longitude": 121.586378,
    "twoFlavors": false,
    "specialShape": false
  },
  {
    "name": "全家大安店",
    "address": "台北市大安區大安路一段２０號",
    "zipCode": 106,
    "latitude": 25.044141,
    "longitude": 121.546052,
    "twoFlavors": false,
    "specialShape": false
  },
  {
    "name": "全家華視店",
    "address": "台北市大安區光復南路１１６巷２６號",
    "zipCode": 106,
    "latitude": 25.042971,
    "longitude": 121.556553,
    "twoFlavors": false,
    "specialShape": false
  },
  {
    "name": "全家忠孝店",
    "address": "台北市大安區敦化南路一段１９０巷７號",
    "zipCode": 106,
    "latitude": 25.042717,
    "longitude": 121.548158,
    "twoFlavors": false,
    "specialShape": false
  },
  {
    "name": "全家忠孝延吉店",
    "address": "台北市大安區忠孝東路４段３１５號１樓",
    "zipCode": 106,
    "latitude": 25.041598,
    "longitude": 121.555907,
    "twoFlavors": false,
    "specialShape": false
  },
  {
    "name": "全家明曜店",
    "address": "台北市大安區仁愛路四段１５１巷３４號．３６號",
    "zipCode": 106,
    "latitude": 25.04027,
    "longitude": 121.551641,
    "twoFlavors": true,
    "specialShape": false
  },
  {
    "name": "全家濟南二店",
    "address": "台北市大安區濟南路３段７號",
    "zipCode": 106,
    "latitude": 25.040241,
    "longitude": 121.533506,
    "twoFlavors": true,
    "specialShape": false
  },
  {
    "name": "全家延安二店",
    "address": "台北市大安區延吉街１３０號",
    "zipCode": 106,
    "latitude": 25.040117,
    "longitude": 121.554689,
    "twoFlavors": false,
    "specialShape": false
  },
  {
    "name": "全家國父紀念館店",
    "address": "台北市大安區光復南路２９２號（範圍如附圖）",
    "zipCode": 106,
    "latitude": 25.039227,
    "longitude": 121.557407,
    "twoFlavors": false,
    "specialShape": false
  },
  {
    "name": "全家復豐店",
    "address": "台北市大安區復興南路１段２５７號１樓",
    "zipCode": 106,
    "latitude": 25.036645,
    "longitude": 121.543869,
    "twoFlavors": false,
    "specialShape": false
  },
  {
    "name": "全家復豪店",
    "address": "台北市大安區復興南路一段３６２號",
    "zipCode": 106,
    "latitude": 25.035224,
    "longitude": 121.54337,
    "twoFlavors": false,
    "specialShape": false
  },
  {
    "name": "全家新生南路店",
    "address": "台北市大安區新生南路一段１６３號",
    "zipCode": 106,
    "latitude": 25.034333,
    "longitude": 121.53291,
    "twoFlavors": false,
    "specialShape": false
  },
  {
    "name": "全家敦安店",
    "address": "台北市大安區安和路一段１１２巷２７號",
    "zipCode": 106,
    "latitude": 25.034028,
    "longitude": 121.550322,
    "twoFlavors": false,
    "specialShape": false
  },
  {
    "name": "全家金信店",
    "address": "台北市大安區信義路二段１０４號１樓",
    "zipCode": 106,
    "latitude": 25.033812,
    "longitude": 121.527498,
    "twoFlavors": false,
    "specialShape": false
  },
  {
    "name": "全家義和店",
    "address": "台北市大安區信義路四段２６５巷８號",
    "zipCode": 106,
    "latitude": 25.033721,
    "longitude": 121.554171,
    "twoFlavors": true,
    "specialShape": false
  },
  {
    "name": "全家信美店",
    "address": "臺北市大安區信義路三段１３４巷２號壹樓＋地下室",
    "zipCode": 106,
    "latitude": 25.033018,
    "longitude": 121.539331,
    "twoFlavors": false,
    "specialShape": false
  },
  {
    "name": "全家金山店",
    "address": "台北市大安區金山南路二段１１３號",
    "zipCode": 106,
    "latitude": 25.030472,
    "longitude": 121.526769,
    "twoFlavors": false,
    "specialShape": false
  },
  {
    "name": "全家政大金華店",
    "address": "台北市大安區金華街１８７號１樓南側部分空間",
    "zipCode": 106,
    "latitude": 25.030158,
    "longitude": 121.527597,
    "twoFlavors": true,
    "specialShape": false
  },
  {
    "name": "全家安賢店",
    "address": "臺北市大安區四維路１７０巷４號",
    "zipCode": 106,
    "latitude": 25.028077,
    "longitude": 121.547787,
    "twoFlavors": false,
    "specialShape": false
  },
  {
    "name": "全家瑞和店",
    "address": "台北市大安區瑞安街１３５巷２８號１樓",
    "zipCode": 106,
    "latitude": 25.026481,
    "longitude": 121.541701,
    "twoFlavors": false,
    "specialShape": false
  },
  {
    "name": "全家古亭店",
    "address": "台北市大安區羅斯福路２段１０３號",
    "zipCode": 106,
    "latitude": 25.024673,
    "longitude": 121.524458,
    "twoFlavors": true,
    "specialShape": false
  },
  {
    "name": "全家國立教育店",
    "address": "台北市大安區和平東路二段１３４號１樓",
    "zipCode": 106,
    "latitude": 25.024595,
    "longitude": 121.544659,
    "twoFlavors": false,
    "specialShape": false
  },
  {
    "name": "全家和鑫店",
    "address": "台北市大安區復興南路二段３６２號",
    "zipCode": 106,
    "latitude": 25.021905,
    "longitude": 121.543194,
    "twoFlavors": false,
    "specialShape": false
  },
  {
    "name": "全家羅騰店",
    "address": "台北市大安區羅斯福路三段２６９巷２號",
    "zipCode": 106,
    "latitude": 25.019054,
    "longitude": 121.530781,
    "twoFlavors": false,
    "specialShape": false
  },
  {
    "name": "全家台大楓林店",
    "address": "台北市大安區羅斯福路四段１號（女九餐廳）",
    "zipCode": 106,
    "latitude": 25.017049,
    "longitude": 121.533648,
    "twoFlavors": false,
    "specialShape": false
  },
  {
    "name": "全家台一宿舍店",
    "address": "台北市大安區羅斯福路４段１號台大大一女北側餐廳",
    "zipCode": 106,
    "latitude": 25.017049,
    "longitude": 121.533648,
    "twoFlavors": false,
    "specialShape": false
  },
  {
    "name": "全家台大舟山店",
    "address": "台北市大安區羅斯福路４段１號舟山路側Ｍ５建物場地",
    "zipCode": 106,
    "latitude": 25.017049,
    "longitude": 121.533648,
    "twoFlavors": true,
    "specialShape": false
  },
  {
    "name": "全家台興店",
    "address": "台北市大安區長興街５０號",
    "zipCode": 106,
    "latitude": 25.01651,
    "longitude": 121.544954,
    "twoFlavors": false,
    "specialShape": false
  },
  {
    "name": "全家貴陽店",
    "address": "台北市萬華區貴陽街二段１８２號，１８４號",
    "zipCode": 108,
    "latitude": 25.040123,
    "longitude": 121.500542,
    "twoFlavors": false,
    "specialShape": false
  },
  {
    "name": "全家廣明店",
    "address": "台北市萬華區昆明街１７３號１樓",
    "zipCode": 108,
    "latitude": 25.039893,
    "longitude": 121.504263,
    "twoFlavors": false,
    "specialShape": false
  },
  {
    "name": "全家康陽店",
    "address": "台北市萬華區康定路９９號",
    "zipCode": 108,
    "latitude": 25.039668,
    "longitude": 121.502026,
    "twoFlavors": false,
    "specialShape": false
  },
  {
    "name": "全家桂林店",
    "address": "台北市萬華區桂林路２３號１樓",
    "zipCode": 108,
    "latitude": 25.037948,
    "longitude": 121.505071,
    "twoFlavors": true,
    "specialShape": false
  },
  {
    "name": "全家龍廣店",
    "address": "台北市萬華區廣州街２０３號、２０５號１．２樓",
    "zipCode": 108,
    "latitude": 25.036832,
    "longitude": 121.50041,
    "twoFlavors": false,
    "specialShape": false
  },
  {
    "name": "全家環河店",
    "address": "台北市萬華區環河南路二段２５０巷４４號１樓",
    "zipCode": 108,
    "latitude": 25.033876,
    "longitude": 121.490723,
    "twoFlavors": true,
    "specialShape": false
  },
  {
    "name": "全家綠堤店",
    "address": "台北市萬華區環河南路二段１７３號",
    "zipCode": 108,
    "latitude": 25.032933,
    "longitude": 121.492299,
    "twoFlavors": false,
    "specialShape": false
  },
  {
    "name": "全家萬大店",
    "address": "台北市萬華區萬大路６４號１樓",
    "zipCode": 108,
    "latitude": 25.030998,
    "longitude": 121.500386,
    "twoFlavors": false,
    "specialShape": false
  },
  {
    "name": "全家寶元店",
    "address": "台北市萬華區寶興街４０號",
    "zipCode": 108,
    "latitude": 25.027289,
    "longitude": 121.493322,
    "twoFlavors": false,
    "specialShape": false
  },
  {
    "name": "全家寶興店",
    "address": "台北市萬華區寶興街７８號",
    "zipCode": 108,
    "latitude": 25.026085,
    "longitude": 121.494186,
    "twoFlavors": false,
    "specialShape": false
  },
  {
    "name": "全家萬武店",
    "address": "台北市萬華區萬大路４２４巷１１２之４號１樓",
    "zipCode": 108,
    "latitude": 25.021173,
    "longitude": 121.49516,
    "twoFlavors": true,
    "specialShape": false
  },
  {
    "name": "全家日祥店",
    "address": "台北市萬華區青年路１５４號、１６８巷２弄１４號１樓",
    "zipCode": 108,
    "latitude": 25.02115,
    "longitude": 121.502354,
    "twoFlavors": false,
    "specialShape": false
  },
  {
    "name": "全家松盛店",
    "address": "台北市信義區松山路１５３號",
    "zipCode": 110,
    "latitude": 25.04655,
    "longitude": 121.577956,
    "twoFlavors": false,
    "specialShape": false
  },
  {
    "name": "全家厚雅店",
    "address": "台北市信義區永吉路３０巷１１８號１樓",
    "zipCode": 110,
    "latitude": 25.043129,
    "longitude": 121.568603,
    "twoFlavors": false,
    "specialShape": false
  },
  {
    "name": "全家協和店",
    "address": "台北市信義區中坡南路３８號１Ｆ",
    "zipCode": 110,
    "latitude": 25.042835,
    "longitude": 121.583348,
    "twoFlavors": false,
    "specialShape": false
  },
  {
    "name": "全家永隆店",
    "address": "台北市信義區基隆路１段１４７巷７號",
    "zipCode": 110,
    "latitude": 25.0425,
    "longitude": 121.56614,
    "twoFlavors": false,
    "specialShape": false
  },
  {
    "name": "全家聯合店",
    "address": "台北市信義區忠孝東路四段５５３巷６弄１７號１樓",
    "zipCode": 110,
    "latitude": 25.042342,
    "longitude": 121.563485,
    "twoFlavors": false,
    "specialShape": false
  },
  {
    "name": "全家大巨蛋店",
    "address": "台北市信義區忠孝東路四段５１５號Ｂ１樓Ｃ－Ｂ１０２",
    "zipCode": 110,
    "latitude": 25.042315,
    "longitude": 121.55953,
    "twoFlavors": true,
    "specialShape": false
  },
  {
    "name": "全家大巨蛋２店",
    "address": "台北市信義區忠孝東路四段５１５號Ｂ２樓Ｃ－Ｂ２１２",
    "zipCode": 110,
    "latitude": 25.042315,
    "longitude": 121.55953,
    "twoFlavors": false,
    "specialShape": false
  },
  {
    "name": "全家忠信店",
    "address": "台北市信義區忠孝東路五段４２５號１樓及地下室",
    "zipCode": 110,
    "latitude": 25.041055,
    "longitude": 121.575402,
    "twoFlavors": true,
    "specialShape": false
  },
  {
    "name": "全家松安店",
    "address": "台北市信義區忠孝東路五段４６５號１樓",
    "zipCode": 110,
    "latitude": 25.041042,
    "longitude": 121.577093,
    "twoFlavors": false,
    "specialShape": false
  },
  {
    "name": "全家新中坡店",
    "address": "台北市信義區中坡南路２２９號",
    "zipCode": 110,
    "latitude": 25.040642,
    "longitude": 121.585062,
    "twoFlavors": false,
    "specialShape": false
  },
  {
    "name": "全家廣慈店",
    "address": "台北市信義區福德街８４巷３２號１樓",
    "zipCode": 110,
    "latitude": 25.038416,
    "longitude": 121.58132,
    "twoFlavors": false,
    "specialShape": false
  },
  {
    "name": "全家新信德店",
    "address": "台北市信義區松德路２８３號",
    "zipCode": 110,
    "latitude": 25.03244,
    "longitude": 121.574732,
    "twoFlavors": false,
    "specialShape": false
  },
  {
    "name": "全家財盛店",
    "address": "台北市信義區基隆路二段１１３之２號",
    "zipCode": 110,
    "latitude": 25.028657,
    "longitude": 121.557184,
    "twoFlavors": true,
    "specialShape": false
  },
  {
    "name": "全家莊敬店",
    "address": "台北市信義區莊敬路３７４號",
    "zipCode": 110,
    "latitude": 25.02755,
    "longitude": 121.564895,
    "twoFlavors": false,
    "specialShape": false
  },
  {
    "name": "全家安信店",
    "address": "台北市信義區信安街４７巷２３號１樓",
    "zipCode": 110,
    "latitude": 25.027346,
    "longitude": 121.55934,
    "twoFlavors": false,
    "specialShape": false
  },
  {
    "name": "全家崇德店",
    "address": "台北市信義區崇德街２９號",
    "zipCode": 110,
    "latitude": 25.024369,
    "longitude": 121.553809,
    "twoFlavors": true,
    "specialShape": false
  },
  {
    "name": "全家挹翠店",
    "address": "台北市信義區吳興街６００巷５６號",
    "zipCode": 110,
    "latitude": 25.020367,
    "longitude": 121.569823,
    "twoFlavors": true,
    "specialShape": false
  },
  {
    "name": "全家六張黎店",
    "address": "台北市信義區和平東路三段３８７號",
    "zipCode": 110,
    "latitude": 25.019886,
    "longitude": 121.55755,
    "twoFlavors": false,
    "specialShape": false
  },
  {
    "name": "全家新文大店",
    "address": "台北市士林區華岡路５５號",
    "zipCode": 111,
    "latitude": 25.13753,
    "longitude": 121.54032,
    "twoFlavors": true,
    "specialShape": false
  },
  {
    "name": "全家後花園店",
    "address": "台北市士林區平菁街７８號１樓",
    "zipCode": 111,
    "latitude": 25.131497,
    "longitude": 121.576274,
    "twoFlavors": true,
    "specialShape": false
  },
  {
    "name": "全家金天玉店",
    "address": "台北市士林區中山北路七段８１巷８號１樓",
    "zipCode": 111,
    "latitude": 25.121942,
    "longitude": 121.530611,
    "twoFlavors": false,
    "specialShape": false
  },
  {
    "name": "全家新磺溪店",
    "address": "台北市士林區天母西路４０－２號１樓",
    "zipCode": 111,
    "latitude": 25.118386,
    "longitude": 121.525882,
    "twoFlavors": false,
    "specialShape": false
  },
  {
    "name": "全家忠旺店",
    "address": "台北市士林區忠誠路二段１５６號１樓",
    "zipCode": 111,
    "latitude": 25.115164,
    "longitude": 121.532747,
    "twoFlavors": false,
    "specialShape": false
  },
  {
    "name": "全家榮富店",
    "address": "台北市士林區中山北路六段７２６號北側",
    "zipCode": 111,
    "latitude": 25.115084,
    "longitude": 121.527949,
    "twoFlavors": true,
    "specialShape": false
  },
  {
    "name": "全家德忠店",
    "address": "台北市士林區德行東路１０９巷７５號壹樓",
    "zipCode": 111,
    "latitude": 25.110002,
    "longitude": 121.528485,
    "twoFlavors": false,
    "specialShape": false
  },
  {
    "name": "全家新芝蘭店",
    "address": "台北市士林區德行東路２８２號１樓",
    "zipCode": 111,
    "latitude": 25.109939,
    "longitude": 121.53576,
    "twoFlavors": false,
    "specialShape": false
  },
  {
    "name": "全家芝興店",
    "address": "台北市士林區德行西路８９號１樓",
    "zipCode": 111,
    "latitude": 25.104545,
    "longitude": 121.521511,
    "twoFlavors": false,
    "specialShape": false
  },
  {
    "name": "全家致昇店",
    "address": "台北市士林區雨聲街３６號１樓",
    "zipCode": 111,
    "latitude": 25.102178,
    "longitude": 121.529165,
    "twoFlavors": true,
    "specialShape": false
  },
  {
    "name": "全家至善店",
    "address": "台北市士林區臨溪里至善路二段２６８號一樓",
    "zipCode": 111,
    "latitude": 25.100569,
    "longitude": 121.551115,
    "twoFlavors": false,
    "specialShape": false
  },
  {
    "name": "全家天文店",
    "address": "台北市士林區美崙街１１８號",
    "zipCode": 111,
    "latitude": 25.097076,
    "longitude": 121.519482,
    "twoFlavors": false,
    "specialShape": false
  },
  {
    "name": "全家福林店",
    "address": "台北市士林區福林里中正路２３３號，２３３之１號",
    "zipCode": 111,
    "latitude": 25.095188,
    "longitude": 121.525986,
    "twoFlavors": true,
    "specialShape": false
  },
  {
    "name": "全家鑫社店",
    "address": "台北市士林區社中街２８０號１樓及２樓",
    "zipCode": 111,
    "latitude": 25.092141,
    "longitude": 121.506306,
    "twoFlavors": false,
    "specialShape": false
  },
  {
    "name": "全家新天地店",
    "address": "台北市士林區大南路３４６號１樓",
    "zipCode": 111,
    "latitude": 25.089102,
    "longitude": 121.517584,
    "twoFlavors": false,
    "specialShape": false
  },
  {
    "name": "全家基河店",
    "address": "台北市士林區基河路１２８號１樓",
    "zipCode": 111,
    "latitude": 25.088709,
    "longitude": 121.523101,
    "twoFlavors": false,
    "specialShape": false
  },
  {
    "name": "全家葫蘆店",
    "address": "台北市士林區延平北路五段２８３之１號",
    "zipCode": 111,
    "latitude": 25.085598,
    "longitude": 121.509472,
    "twoFlavors": false,
    "specialShape": false
  },
  {
    "name": "全家福港店",
    "address": "台北市士林區前港街１２６號",
    "zipCode": 111,
    "latitude": 25.085188,
    "longitude": 121.517764,
    "twoFlavors": false,
    "specialShape": false
  },
  {
    "name": "全家大港店",
    "address": "台北市士林區前港街３９號",
    "zipCode": 111,
    "latitude": 25.084857,
    "longitude": 121.521431,
    "twoFlavors": false,
    "specialShape": false
  },
  {
    "name": "全家新延店",
    "address": "台北市士林區延平北路五段２１７號１樓",
    "zipCode": 111,
    "latitude": 25.083959,
    "longitude": 121.509849,
    "twoFlavors": false,
    "specialShape": false
  },
  {
    "name": "全家通河店",
    "address": "台北市士林區通河街１４５號",
    "zipCode": 111,
    "latitude": 25.081014,
    "longitude": 121.520657,
    "twoFlavors": false,
    "specialShape": false
  },
  {
    "name": "全家新和店",
    "address": "台北市北投區中和街４８９號",
    "zipCode": 112,
    "latitude": 25.145102,
    "longitude": 121.495048,
    "twoFlavors": true,
    "specialShape": false
  },
  {
    "name": "全家鑫復中店",
    "address": "台北市北投區中和街３２２號",
    "zipCode": 112,
    "latitude": 25.141115,
    "longitude": 121.499661,
    "twoFlavors": false,
    "specialShape": false
  },
  {
    "name": "全家溫泉店",
    "address": "台北市北投區公館路６１－１號１樓",
    "zipCode": 112,
    "latitude": 25.132687,
    "longitude": 121.503755,
    "twoFlavors": false,
    "specialShape": false
  },
  {
    "name": "全家光明店",
    "address": "台北市北投區光明路２３號，２５號",
    "zipCode": 112,
    "latitude": 25.132661,
    "longitude": 121.49916,
    "twoFlavors": false,
    "specialShape": false
  },
  {
    "name": "全家大心店",
    "address": "台北市北投區大興街８０之１號",
    "zipCode": 112,
    "latitude": 25.130655,
    "longitude": 121.501759,
    "twoFlavors": false,
    "specialShape": false
  },
  {
    "name": "全家大業店",
    "address": "台北市北投區大興街２２號",
    "zipCode": 112,
    "latitude": 25.129864,
    "longitude": 121.498376,
    "twoFlavors": false,
    "specialShape": false
  },
  {
    "name": "全家三合店",
    "address": "台北市北投區三合街一段１１６號１樓",
    "zipCode": 112,
    "latitude": 25.126936,
    "longitude": 121.504239,
    "twoFlavors": false,
    "specialShape": false
  },
  {
    "name": "全家中央南路店",
    "address": "台北市北投區中央南路２段１５號１樓",
    "zipCode": 112,
    "latitude": 25.125814,
    "longitude": 121.500506,
    "twoFlavors": false,
    "specialShape": false
  },
  {
    "name": "全家關渡慈濟店",
    "address": "台北市北投區立德路８號（二樓部分）",
    "zipCode": 112,
    "latitude": 25.124257,
    "longitude": 121.471979,
    "twoFlavors": false,
    "specialShape": false
  },
  {
    "name": "全家新知行店",
    "address": "臺北市北投區知行路２３７號",
    "zipCode": 112,
    "latitude": 25.120354,
    "longitude": 121.466982,
    "twoFlavors": true,
    "specialShape": false
  },
  {
    "name": "全家華儷店",
    "address": "台北市北投區西安街二段２０３號１樓",
    "zipCode": 112,
    "latitude": 25.11974,
    "longitude": 121.510091,
    "twoFlavors": false,
    "specialShape": false
  },
  {
    "name": "全家北護店",
    "address": "台北市北投區明德路３６５號教學研究大樓一樓",
    "zipCode": 112,
    "latitude": 25.117609,
    "longitude": 121.521426,
    "twoFlavors": false,
    "specialShape": false
  },
  {
    "name": "全家富貴店",
    "address": "台北市北投區榮華三路３之１號１樓",
    "zipCode": 112,
    "latitude": 25.113667,
    "longitude": 121.523936,
    "twoFlavors": true,
    "specialShape": false
  },
  {
    "name": "全家榮光店",
    "address": "台北市北投區石牌路一段１６６巷９３號",
    "zipCode": 112,
    "latitude": 25.112431,
    "longitude": 121.515116,
    "twoFlavors": false,
    "specialShape": false
  },
  {
    "name": "全家明德店",
    "address": "台北市北投區石牌里明德路９３號",
    "zipCode": 112,
    "latitude": 25.109075,
    "longitude": 121.518863,
    "twoFlavors": false,
    "specialShape": false
  },
  {
    "name": "全家金瑞店",
    "address": "臺北市內湖區金龍路２２４號",
    "zipCode": 114,
    "latitude": 25.088283,
    "longitude": 121.586693,
    "twoFlavors": false,
    "specialShape": false
  },
  {
    "name": "全家湖茂店",
    "address": "台北市內湖區文湖街２１巷７號１樓",
    "zipCode": 114,
    "latitude": 25.087114,
    "longitude": 121.560153,
    "twoFlavors": false,
    "specialShape": false
  },
  {
    "name": "全家新環山店",
    "address": "台北市內湖區環山路一段７號１樓",
    "zipCode": 114,
    "latitude": 25.082928,
    "longitude": 121.565702,
    "twoFlavors": false,
    "specialShape": false
  },
  {
    "name": "全家德湖店",
    "address": "台北市內湖區成功路四段６２號１樓及Ｂ１",
    "zipCode": 114,
    "latitude": 25.08276,
    "longitude": 121.592489,
    "twoFlavors": false,
    "specialShape": false
  },
  {
    "name": "全家娜莎店",
    "address": "台北市內湖區內湖路一段２４６號",
    "zipCode": 114,
    "latitude": 25.082052,
    "longitude": 121.56635,
    "twoFlavors": false,
    "specialShape": false
  },
  {
    "name": "全家達成店",
    "address": "台北市內湖區成功路三段１７４巷１８號一樓",
    "zipCode": 114,
    "latitude": 25.081164,
    "longitude": 121.590487,
    "twoFlavors": false,
    "specialShape": false
  },
  {
    "name": "全家星湖店",
    "address": "台北市內湖區星雲街１６１巷１號",
    "zipCode": 114,
    "latitude": 25.080855,
    "longitude": 121.596255,
    "twoFlavors": false,
    "specialShape": false
  },
  {
    "name": "全家紫新店",
    "address": "台北市內湖區康寧路ㄧ段３７號ㄧ樓",
    "zipCode": 114,
    "latitude": 25.0804974860244,
    "longitude": 121.591658897346,
    "twoFlavors": false,
    "specialShape": false
  },
  {
    "name": "全家內科店",
    "address": "台北市內湖區洲子街６１號１樓（部份）",
    "zipCode": 114,
    "latitude": 25.079526,
    "longitude": 121.572918,
    "twoFlavors": true,
    "specialShape": false
  },
  {
    "name": "全家瑞江店",
    "address": "台北市內湖區江南街９１號壹樓",
    "zipCode": 114,
    "latitude": 25.07681,
    "longitude": 121.576937,
    "twoFlavors": false,
    "specialShape": false
  },
  {
    "name": "全家護校店",
    "address": "台北市內湖區康寧路三段７５巷１３７號",
    "zipCode": 114,
    "latitude": 25.075208,
    "longitude": 121.61003,
    "twoFlavors": false,
    "specialShape": false
  },
  {
    "name": "全家陽鑫店",
    "address": "台北市內湖區瑞湖街８０號１樓Ｒ３、Ｒ４",
    "zipCode": 114,
    "latitude": 25.07258,
    "longitude": 121.575962,
    "twoFlavors": false,
    "specialShape": false
  },
  {
    "name": "全家湖洲店",
    "address": "台北市內湖區民權東路六段２９６巷７０號１樓",
    "zipCode": 114,
    "latitude": 25.070215,
    "longitude": 121.608901,
    "twoFlavors": false,
    "specialShape": false
  },
  {
    "name": "全家新東湖店",
    "address": "臺北市內湖區東湖路４３巷４號",
    "zipCode": 114,
    "latitude": 25.069196,
    "longitude": 121.61415,
    "twoFlavors": true,
    "specialShape": false
  },
  {
    "name": "全家三民店",
    "address": "台北市內湖區民權東路六段９０巷１號",
    "zipCode": 114,
    "latitude": 25.068786,
    "longitude": 121.586051,
    "twoFlavors": false,
    "specialShape": false
  },
  {
    "name": "全家內華店",
    "address": "台北市內湖區民權東路六段１６２號",
    "zipCode": 114,
    "latitude": 25.068665,
    "longitude": 121.591812,
    "twoFlavors": false,
    "specialShape": false
  },
  {
    "name": "全家新湖店",
    "address": "台北市內湖區新湖二路２５０巷８號１樓",
    "zipCode": 114,
    "latitude": 25.064886,
    "longitude": 121.582544,
    "twoFlavors": false,
    "specialShape": false
  },
  {
    "name": "全家行善店",
    "address": "臺北市內湖區行善路２８９號",
    "zipCode": 114,
    "latitude": 25.061544,
    "longitude": 121.58419,
    "twoFlavors": true,
    "specialShape": false
  },
  {
    "name": "全家行美店",
    "address": "台北市內湖區新明路３７６號",
    "zipCode": 114,
    "latitude": 25.054857,
    "longitude": 121.580532,
    "twoFlavors": false,
    "specialShape": false
  },
  {
    "name": "全家大聯大店",
    "address": "台北市南港區經貿二路１９１號一樓",
    "zipCode": 115,
    "latitude": 25.060685,
    "longitude": 121.616129,
    "twoFlavors": false,
    "specialShape": false
  },
  {
    "name": "全家小彎公宅店",
    "address": "台北市南港區向陽路２５６號１樓",
    "zipCode": 115,
    "latitude": 25.057701,
    "longitude": 121.593147,
    "twoFlavors": false,
    "specialShape": false
  },
  {
    "name": "全家南港公宅店",
    "address": "台北市南港區南港路二段３８巷６之２號",
    "zipCode": 115,
    "latitude": 25.054765,
    "longitude": 121.60478,
    "twoFlavors": false,
    "specialShape": false
  },
  {
    "name": "全家港忠店",
    "address": "台北市南港區忠孝東路七段６３５號１樓",
    "zipCode": 115,
    "latitude": 25.053317,
    "longitude": 121.615941,
    "twoFlavors": false,
    "specialShape": false
  },
  {
    "name": "全家新昆陽店",
    "address": "台北市南港區昆陽街１４５號",
    "zipCode": 115,
    "latitude": 25.050117,
    "longitude": 121.594181,
    "twoFlavors": false,
    "specialShape": false
  },
  {
    "name": "全家新成鑫店",
    "address": "台北市南港區玉成街１７６巷１號",
    "zipCode": 115,
    "latitude": 25.044405,
    "longitude": 121.584297,
    "twoFlavors": false,
    "specialShape": false
  },
  {
    "name": "全家胡適店",
    "address": "台北市南港區舊莊街一段３巷１６號",
    "zipCode": 115,
    "latitude": 25.042341,
    "longitude": 121.618172,
    "twoFlavors": false,
    "specialShape": false
  },
  {
    "name": "全家港福店",
    "address": "台北市南港區福德街３７３巷６３號１樓",
    "zipCode": 115,
    "latitude": 25.03963,
    "longitude": 121.592009,
    "twoFlavors": false,
    "specialShape": false
  },
  {
    "name": "全家新莊研店",
    "address": "台北市南港區舊莊街一段１６９號",
    "zipCode": 115,
    "latitude": 25.039469,
    "longitude": 121.621235,
    "twoFlavors": true,
    "specialShape": false
  },
  {
    "name": "全家興業店",
    "address": "台北市文山區興隆路二段２７９號",
    "zipCode": 116,
    "latitude": 25.001671,
    "longitude": 121.552696,
    "twoFlavors": false,
    "specialShape": false
  },
  {
    "name": "全家靜興店",
    "address": "台北市文山區興隆路二段７５號壹樓",
    "zipCode": 116,
    "latitude": 24.999224,
    "longitude": 121.54662,
    "twoFlavors": false,
    "specialShape": false
  },
  {
    "name": "全家景富店",
    "address": "台北市文山區景福街２５號",
    "zipCode": 116,
    "latitude": 24.999095,
    "longitude": 121.538273,
    "twoFlavors": false,
    "specialShape": false
  },
  {
    "name": "全家仙岩店",
    "address": "台北市文山區仙岩路２號",
    "zipCode": 116,
    "latitude": 24.998265,
    "longitude": 121.547821,
    "twoFlavors": true,
    "specialShape": false
  },
  {
    "name": "全家羅和店",
    "address": "台北市文山區羅斯福路六段１４６－１號",
    "zipCode": 116,
    "latitude": 24.995701,
    "longitude": 121.540953,
    "twoFlavors": false,
    "specialShape": false
  },
  {
    "name": "全家新文華店",
    "address": "台北市文山區景華街３巷２號１樓及Ｂ１",
    "zipCode": 116,
    "latitude": 24.995174,
    "longitude": 121.541577,
    "twoFlavors": false,
    "specialShape": false
  },
  {
    "name": "全家芳興店",
    "address": "台北市文山區萬芳路３號１樓",
    "zipCode": 116,
    "latitude": 24.995013,
    "longitude": 121.571137,
    "twoFlavors": false,
    "specialShape": false
  },
  {
    "name": "全家景中店",
    "address": "台北市文山區景中街５號，七號一樓",
    "zipCode": 116,
    "latitude": 24.99306,
    "longitude": 121.541735,
    "twoFlavors": false,
    "specialShape": false
  },
  {
    "name": "全家世景店",
    "address": "台北市文山區景興路２８２巷２號壹樓",
    "zipCode": 116,
    "latitude": 24.989703,
    "longitude": 121.542229,
    "twoFlavors": false,
    "specialShape": false
  },
  {
    "name": "全家木興店",
    "address": "台北市文山區木柵路２段５２號",
    "zipCode": 116,
    "latitude": 24.988629,
    "longitude": 121.558935,
    "twoFlavors": true,
    "specialShape": false
  },
  {
    "name": "全家興政店",
    "address": "台北市文山區指南路二段８３號壹＋貳樓",
    "zipCode": 116,
    "latitude": 24.987878,
    "longitude": 121.575131,
    "twoFlavors": true,
    "specialShape": false
  },
  {
    "name": "全家文山公宅店",
    "address": "台北市文山區興隆路四段１０５巷４２號木柵大樓１樓",
    "zipCode": 116,
    "latitude": 24.987711,
    "longitude": 121.561979,
    "twoFlavors": false,
    "specialShape": false
  },
  {
    "name": "全家政富店",
    "address": "台北市文山區指南路二段１４５號１樓",
    "zipCode": 116,
    "latitude": 24.987505,
    "longitude": 121.577119,
    "twoFlavors": false,
    "specialShape": false
  },
  {
    "name": "全家試院店",
    "address": "台北市文山區木柵路一段９１號９３號一樓",
    "zipCode": 116,
    "latitude": 24.987128,
    "longitude": 121.547328,
    "twoFlavors": false,
    "specialShape": false
  },
  {
    "name": "全家鑫順店",
    "address": "台北市文山區忠順街二段１６號、１８號",
    "zipCode": 116,
    "latitude": 24.984605,
    "longitude": 121.562569,
    "twoFlavors": false,
    "specialShape": false
  },
  {
    "name": "全家指南店",
    "address": "台北市文山區指南路三段５１號１樓及２樓",
    "zipCode": 116,
    "latitude": 24.983825,
    "longitude": 121.579682,
    "twoFlavors": false,
    "specialShape": false
  },
  {
    "name": "全家恆光店",
    "address": "台北市文山區恆光街２１號１樓",
    "zipCode": 116,
    "latitude": 24.983153,
    "longitude": 121.566853,
    "twoFlavors": true,
    "specialShape": false
  },
  {
    "name": "全家順新店",
    "address": "台北市文山區忠順街１段２６巷２９號１樓",
    "zipCode": 116,
    "latitude": 24.981999,
    "longitude": 121.559908,
    "twoFlavors": false,
    "specialShape": false
  },
  {
    "name": "全家鑫木新店",
    "address": "台北市文山區木新路三段３４３號１樓",
    "zipCode": 116,
    "latitude": 24.980352,
    "longitude": 121.555923,
    "twoFlavors": true,
    "specialShape": false
  },
  {
    "name": "全家樟鑫店",
    "address": "台北市文山區樟新街１９號１樓",
    "zipCode": 116,
    "latitude": 24.978907,
    "longitude": 121.555442,
    "twoFlavors": false,
    "specialShape": false
  },
  {
    "name": "全家基隆車站店",
    "address": "基隆市仁愛區中山一路１６之１號",
    "zipCode": 200,
    "latitude": 25.134339,
    "longitude": 121.739539,
    "twoFlavors": false,
    "specialShape": false
  },
  {
    "name": "全家基隆鑫忠孝店",
    "address": "基隆市仁愛區孝三路５４號壹樓",
    "zipCode": 200,
    "latitude": 25.130108,
    "longitude": 121.739341,
    "twoFlavors": false,
    "specialShape": false
  },
  {
    "name": "全家基隆仁愛店",
    "address": "基隆市仁愛區愛四路５６號１樓及夾層",
    "zipCode": 200,
    "latitude": 25.128972,
    "longitude": 121.744032,
    "twoFlavors": false,
    "specialShape": false
  },
  {
    "name": "全家基隆成公店",
    "address": "基隆市仁愛區成功一路１４４號（部份）",
    "zipCode": 200,
    "latitude": 25.128665,
    "longitude": 121.736549,
    "twoFlavors": false,
    "specialShape": false
  },
  {
    "name": "全家基隆劉銘傳店",
    "address": "基隆市仁愛區劉銘傳路１５號壹樓",
    "zipCode": 200,
    "latitude": 25.127539,
    "longitude": 121.750882,
    "twoFlavors": false,
    "specialShape": false
  },
  {
    "name": "全家基隆新深溪店",
    "address": "基隆市信義區深溪路５９號",
    "zipCode": 201,
    "latitude": 25.132781,
    "longitude": 121.782039,
    "twoFlavors": false,
    "specialShape": false
  },
  {
    "name": "全家基隆信義店",
    "address": "基隆市信義區信二路２３６－２號",
    "zipCode": 201,
    "latitude": 25.129659,
    "longitude": 121.751548,
    "twoFlavors": false,
    "specialShape": false
  },
  {
    "name": "全家基隆信一店",
    "address": "基隆市信義區信一路１４８號",
    "zipCode": 201,
    "latitude": 25.129631,
    "longitude": 121.74677,
    "twoFlavors": false,
    "specialShape": false
  },
  {
    "name": "全家基隆東岸店",
    "address": "基隆市中正區中船路１３４號１樓",
    "zipCode": 202,
    "latitude": 25.138351,
    "longitude": 121.750868,
    "twoFlavors": false,
    "specialShape": false
  },
  {
    "name": "全家基隆新中船店",
    "address": "基隆市中正區中船路８２號",
    "zipCode": 202,
    "latitude": 25.137445,
    "longitude": 121.751056,
    "twoFlavors": true,
    "specialShape": false
  },
  {
    "name": "全家基隆鑫港店",
    "address": "基隆市中正區中正路１８號壹樓",
    "zipCode": 202,
    "latitude": 25.132779,
    "longitude": 121.74454,
    "twoFlavors": false,
    "specialShape": false
  },
  {
    "name": "全家基隆新義二店",
    "address": "基隆市中正區義二路３４號",
    "zipCode": 202,
    "latitude": 25.131062,
    "longitude": 121.745424,
    "twoFlavors": true,
    "specialShape": false
  },
  {
    "name": "全家基隆經國店",
    "address": "基隆市中山區復興路３３６－１號",
    "zipCode": 203,
    "latitude": 25.150676,
    "longitude": 121.727983,
    "twoFlavors": true,
    "specialShape": false
  },
  {
    "name": "全家基隆鑫橫濱店",
    "address": "基隆市中山區復興路２１７號",
    "zipCode": 203,
    "latitude": 25.148135,
    "longitude": 121.725005,
    "twoFlavors": false,
    "specialShape": false
  },
  {
    "name": "全家基隆中山店",
    "address": "基隆市中山區中山二路５３號．５３－１號",
    "zipCode": 203,
    "latitude": 25.13809,
    "longitude": 121.740313,
    "twoFlavors": true,
    "specialShape": false
  },
  {
    "name": "全家基隆基金店",
    "address": "基隆市安樂區基金三路１４５號",
    "zipCode": 204,
    "latitude": 25.156583,
    "longitude": 121.695374,
    "twoFlavors": false,
    "specialShape": false
  },
  {
    "name": "全家基隆新崙店",
    "address": "基隆市安樂區基金一路２０８巷９２之６號一樓",
    "zipCode": 204,
    "latitude": 25.146927,
    "longitude": 121.708534,
    "twoFlavors": false,
    "specialShape": false
  },
  {
    "name": "全家基隆萬金店",
    "address": "基隆市安樂區基金一路１４６號之地下室",
    "zipCode": 204,
    "latitude": 25.140588,
    "longitude": 121.71172,
    "twoFlavors": true,
    "specialShape": false
  },
  {
    "name": "全家基隆武嶺店",
    "address": "基隆市安樂區武嶺街１８１－６號１樓",
    "zipCode": 204,
    "latitude": 25.138508,
    "longitude": 121.710208,
    "twoFlavors": false,
    "specialShape": false
  },
  {
    "name": "全家基隆龍騰店",
    "address": "基隆市安樂區樂利三街８巷１６號底四層",
    "zipCode": 204,
    "latitude": 25.129359,
    "longitude": 121.718614,
    "twoFlavors": true,
    "specialShape": false
  },
  {
    "name": "全家基隆鑫樂富店",
    "address": "基隆市安樂區樂利二街６２巷２２５號",
    "zipCode": 204,
    "latitude": 25.12096,
    "longitude": 121.716531,
    "twoFlavors": false,
    "specialShape": false
  },
  {
    "name": "全家基隆長庚店",
    "address": "基隆市安樂區安樂路二段１５７號",
    "zipCode": 204,
    "latitude": 25.120803,
    "longitude": 121.723493,
    "twoFlavors": false,
    "specialShape": false
  },
  {
    "name": "全家基隆暖東店",
    "address": "基隆市暖暖區暖暖街１６３號",
    "zipCode": 205,
    "latitude": 25.09974,
    "longitude": 121.736321,
    "twoFlavors": true,
    "specialShape": false
  },
  {
    "name": "全家基隆瑞發店",
    "address": "基隆市暖暖區源遠路２７５－１１號",
    "zipCode": 205,
    "latitude": 25.099109,
    "longitude": 121.755727,
    "twoFlavors": false,
    "specialShape": false
  },
  {
    "name": "全家基隆暖鑫店",
    "address": "基隆市暖暖區暖暖街４６１號壹樓",
    "zipCode": 205,
    "latitude": 25.092936,
    "longitude": 121.736925,
    "twoFlavors": false,
    "specialShape": false
  },
  {
    "name": "全家七堵泰安店",
    "address": "基隆市七堵區泰安路２３－１２號",
    "zipCode": 206,
    "latitude": 25.089208,
    "longitude": 121.708735,
    "twoFlavors": false,
    "specialShape": false
  },
  {
    "name": "全家基隆百福店",
    "address": "基隆市七堵區百福里福二街２０４號１樓",
    "zipCode": 206,
    "latitude": 25.083758,
    "longitude": 121.696215,
    "twoFlavors": false,
    "specialShape": false
  },
  {
    "name": "全家萬里頂社店",
    "address": "新北市萬里區大鵬里頂社１號",
    "zipCode": 207,
    "latitude": 25.20976206,
    "longitude": 121.65627335,
    "twoFlavors": false,
    "specialShape": false
  },
  {
    "name": "全家萬里漁澳店",
    "address": "新北市萬里區龜吼村漁澳１６－６號",
    "zipCode": 207,
    "latitude": 25.19485646,
    "longitude": 121.68676806,
    "twoFlavors": false,
    "specialShape": false
  },
  {
    "name": "全家馬祖福運店",
    "address": "連江縣南竿鄉福沃村６９號１樓",
    "zipCode": 209,
    "latitude": 26.158136,
    "longitude": 119.941263,
    "twoFlavors": true,
    "specialShape": false
  },
  {
    "name": "全家馬祖北竿店",
    "address": "連江縣北竿鄉塘岐村８０號１樓",
    "zipCode": 210,
    "latitude": 26.224362,
    "longitude": 119.995141,
    "twoFlavors": true,
    "specialShape": false
  },
  {
    "name": "全家板橋華江店",
    "address": "新北市板橋區雙十路三段５４號",
    "zipCode": 220,
    "latitude": 25.03148,
    "longitude": 121.470944,
    "twoFlavors": false,
    "specialShape": false
  },
  {
    "name": "全家板橋江翠店",
    "address": "新北市板橋區懷德街１２７巷１號及３號１Ｆ",
    "zipCode": 220,
    "latitude": 25.030925,
    "longitude": 121.478897,
    "twoFlavors": false,
    "specialShape": false
  },
  {
    "name": "全家板橋龍江店",
    "address": "新北市板橋區文化路二段１８２巷３弄９１，９３號１樓",
    "zipCode": 220,
    "latitude": 25.029126,
    "longitude": 121.47245,
    "twoFlavors": false,
    "specialShape": false
  },
  {
    "name": "全家板橋富貴店",
    "address": "新北市板橋區新海路４６２，４６４，４６６號１樓",
    "zipCode": 220,
    "latitude": 25.02845,
    "longitude": 121.4577,
    "twoFlavors": false,
    "specialShape": false
  },
  {
    "name": "全家板橋興盛店",
    "address": "新北市板橋區文聖街１６１號１樓",
    "zipCode": 220,
    "latitude": 25.02746,
    "longitude": 121.478933,
    "twoFlavors": false,
    "specialShape": false
  },
  {
    "name": "全家板橋新裕店",
    "address": "新北市板橋區裕民街１３０號１及２樓",
    "zipCode": 220,
    "latitude": 25.027438,
    "longitude": 121.458885,
    "twoFlavors": false,
    "specialShape": false
  },
  {
    "name": "全家板橋莊敬店",
    "address": "新北市板橋區莊敬路８９號",
    "zipCode": 220,
    "latitude": 25.026409,
    "longitude": 121.472748,
    "twoFlavors": false,
    "specialShape": false
  },
  {
    "name": "全家板橋雙十店",
    "address": "新北市板橋區雙十路二段６—８號，６—９號，６—１０",
    "zipCode": 220,
    "latitude": 25.026403,
    "longitude": 121.476782,
    "twoFlavors": true,
    "specialShape": false
  },
  {
    "name": "全家板橋聯翠店",
    "address": "新北市板橋區光武街２２號壹樓",
    "zipCode": 220,
    "latitude": 25.025417,
    "longitude": 121.467744,
    "twoFlavors": false,
    "specialShape": false
  },
  {
    "name": "全家板橋益豐店",
    "address": "新北市板橋區莒光路３６號１樓",
    "zipCode": 220,
    "latitude": 25.024471,
    "longitude": 121.470273,
    "twoFlavors": false,
    "specialShape": false
  },
  {
    "name": "全家板橋新泉店",
    "address": "新北市板橋區龍泉街１２６號",
    "zipCode": 220,
    "latitude": 25.024133,
    "longitude": 121.457114,
    "twoFlavors": false,
    "specialShape": false
  },
  {
    "name": "全家板橋新農店",
    "address": "新北市板橋區新海路３２８，３３０號１樓",
    "zipCode": 220,
    "latitude": 25.02411,
    "longitude": 121.460441,
    "twoFlavors": false,
    "specialShape": false
  },
  {
    "name": "全家板橋禾原店",
    "address": "新北市板橋區莒光路２８巷１３號",
    "zipCode": 220,
    "latitude": 25.023896,
    "longitude": 121.469882,
    "twoFlavors": false,
    "specialShape": false
  },
  {
    "name": "全家板橋萬興店",
    "address": "新北市板橋區萬安街５３巷２７號",
    "zipCode": 220,
    "latitude": 25.023569,
    "longitude": 121.482903,
    "twoFlavors": false,
    "specialShape": false
  },
  {
    "name": "全家板橋自由店",
    "address": "新北市板橋區自由路３４號１樓",
    "zipCode": 220,
    "latitude": 25.023021,
    "longitude": 121.465655,
    "twoFlavors": false,
    "specialShape": false
  },
  {
    "name": "全家板橋莒光店",
    "address": "新北市板橋區莒光路２２５，２２７號",
    "zipCode": 220,
    "latitude": 25.022533,
    "longitude": 121.474271,
    "twoFlavors": false,
    "specialShape": false
  },
  {
    "name": "全家板橋文興店",
    "address": "新北市板橋區民生路二段２３０號１樓",
    "zipCode": 220,
    "latitude": 25.022157,
    "longitude": 121.469063,
    "twoFlavors": false,
    "specialShape": false
  },
  {
    "name": "全家板橋瑞安店",
    "address": "新北市板橋區中正路３９５號１樓",
    "zipCode": 220,
    "latitude": 25.021983,
    "longitude": 121.454156,
    "twoFlavors": false,
    "specialShape": false
  },
  {
    "name": "全家板橋富山店",
    "address": "新北市板橋區三民路一段９４號，９６號",
    "zipCode": 220,
    "latitude": 25.02167,
    "longitude": 121.47921,
    "twoFlavors": false,
    "specialShape": false
  },
  {
    "name": "全家板橋文化店",
    "address": "新北市板橋區文化路一段２８０號",
    "zipCode": 220,
    "latitude": 25.02117,
    "longitude": 121.467183,
    "twoFlavors": false,
    "specialShape": false
  },
  {
    "name": "全家板橋新甫華店",
    "address": "新北市板橋區新生街２２號",
    "zipCode": 220,
    "latitude": 25.021099,
    "longitude": 121.455833,
    "twoFlavors": false,
    "specialShape": false
  },
  {
    "name": "全家板橋漢西店",
    "address": "新北市板橋區文化路一段３１３號",
    "zipCode": 220,
    "latitude": 25.020853,
    "longitude": 121.465214,
    "twoFlavors": true,
    "specialShape": false
  },
  {
    "name": "全家板橋新富陽店",
    "address": "新北市板橋區復興街１３３號",
    "zipCode": 220,
    "latitude": 25.018134,
    "longitude": 121.461018,
    "twoFlavors": false,
    "specialShape": false
  },
  {
    "name": "全家板橋大庭店",
    "address": "新北市板橋區中正路１９１號",
    "zipCode": 220,
    "latitude": 25.017008,
    "longitude": 121.456335,
    "twoFlavors": false,
    "specialShape": false
  },
  {
    "name": "全家板橋長壽店",
    "address": "新北市板橋區三民路二段８３號",
    "zipCode": 220,
    "latitude": 25.016649,
    "longitude": 121.479392,
    "twoFlavors": false,
    "specialShape": false
  },
  {
    "name": "全家板橋大仁店",
    "address": "新北市板橋區大仁街１０８之１號",
    "zipCode": 220,
    "latitude": 25.016015,
    "longitude": 121.453013,
    "twoFlavors": false,
    "specialShape": false
  },
  {
    "name": "全家板橋天和店",
    "address": "新北市板橋區三民路二段１４０號１樓",
    "zipCode": 220,
    "latitude": 25.015983,
    "longitude": 121.479008,
    "twoFlavors": true,
    "specialShape": false
  },
  {
    "name": "全家板橋雙城店",
    "address": "新北市板橋區縣民大道二段１０６號１樓",
    "zipCode": 220,
    "latitude": 25.01534,
    "longitude": 121.467056,
    "twoFlavors": false,
    "specialShape": false
  },
  {
    "name": "全家板橋東站店",
    "address": "新北市板橋區縣民大道二段７號",
    "zipCode": 220,
    "latitude": 25.014361,
    "longitude": 121.463614,
    "twoFlavors": false,
    "specialShape": false
  },
  {
    "name": "全家板橋永安店",
    "address": "新北市板橋區長安街３３１巷９４號１樓",
    "zipCode": 220,
    "latitude": 25.012826,
    "longitude": 121.471958,
    "twoFlavors": false,
    "specialShape": false
  },
  {
    "name": "全家板橋廣榮店",
    "address": "新北市板橋區民生路一段３３號１樓之１",
    "zipCode": 220,
    "latitude": 25.012019,
    "longitude": 121.47592,
    "twoFlavors": true,
    "specialShape": false
  },
  {
    "name": "全家板橋新安店",
    "address": "新北市板橋區長安街２９７號",
    "zipCode": 220,
    "latitude": 25.011991,
    "longitude": 121.474365,
    "twoFlavors": true,
    "specialShape": false
  },
  {
    "name": "全家板橋大東店",
    "address": "新北市板橋區府中路１２７號１樓",
    "zipCode": 220,
    "latitude": 25.00952,
    "longitude": 121.455999,
    "twoFlavors": false,
    "specialShape": false
  },
  {
    "name": "全家板橋國泰店",
    "address": "新北市板橋區國泰街３７號１樓",
    "zipCode": 220,
    "latitude": 25.006672,
    "longitude": 121.468475,
    "twoFlavors": false,
    "specialShape": false
  },
  {
    "name": "全家板橋僑二店",
    "address": "新北市板橋區僑中二街１１６巷１號１樓",
    "zipCode": 220,
    "latitude": 25.006382,
    "longitude": 121.445506,
    "twoFlavors": false,
    "specialShape": false
  },
  {
    "name": "全家板橋都鑫店",
    "address": "新北市板橋區實踐路８９號一樓",
    "zipCode": 220,
    "latitude": 25.005529,
    "longitude": 121.464039,
    "twoFlavors": false,
    "specialShape": false
  },
  {
    "name": "全家板橋大雅店",
    "address": "新北市板橋區南雅南路二段５號１樓",
    "zipCode": 220,
    "latitude": 25.002897,
    "longitude": 121.4545,
    "twoFlavors": false,
    "specialShape": false
  },
  {
    "name": "全家板橋美堤店",
    "address": "新北市板橋區龍興街７１巷１號１樓",
    "zipCode": 220,
    "latitude": 25.001845,
    "longitude": 121.44369,
    "twoFlavors": false,
    "specialShape": false
  },
  {
    "name": "全家板橋湳雅店",
    "address": "新北市板橋區南雅南路二段９４號",
    "zipCode": 220,
    "latitude": 25.001441,
    "longitude": 121.453443,
    "twoFlavors": true,
    "specialShape": false
  },
  {
    "name": "全家板橋擎天店",
    "address": "新北市板橋區重慶路２４３號１樓",
    "zipCode": 220,
    "latitude": 25.000763,
    "longitude": 121.463198,
    "twoFlavors": false,
    "specialShape": false
  },
  {
    "name": "全家板橋宜居店",
    "address": "新北市板橋區樂群路１５８號１樓",
    "zipCode": 220,
    "latitude": 24.997244,
    "longitude": 121.445386,
    "twoFlavors": false,
    "specialShape": false
  },
  {
    "name": "全家板橋華東店",
    "address": "新北市板橋區南雅南路二段１４４巷１８號",
    "zipCode": 220,
    "latitude": 24.995758,
    "longitude": 121.450711,
    "twoFlavors": false,
    "specialShape": false
  },
  {
    "name": "全家板橋華德店",
    "address": "新北市板橋區四川路二段４７巷３弄４號１樓",
    "zipCode": 220,
    "latitude": 24.994695,
    "longitude": 121.454277,
    "twoFlavors": false,
    "specialShape": false
  },
  {
    "name": "全家板橋金成店",
    "address": "新北市板橋區金門街３１３號１樓",
    "zipCode": 220,
    "latitude": 24.98621,
    "longitude": 121.42977,
    "twoFlavors": false,
    "specialShape": false
  },
  {
    "name": "全家汐止光明店",
    "address": "新北市汐止區大同路二段５２１號１樓",
    "zipCode": 221,
    "latitude": 25.069096,
    "longitude": 121.661428,
    "twoFlavors": false,
    "specialShape": false
  },
  {
    "name": "全家汐止新樹店",
    "address": "新北市汐止區樟樹二路２７３號",
    "zipCode": 221,
    "latitude": 25.068947,
    "longitude": 121.640844,
    "twoFlavors": true,
    "specialShape": false
  },
  {
    "name": "全家汐止站前店",
    "address": "新北市汐止區南昌街１６號",
    "zipCode": 221,
    "latitude": 25.068374,
    "longitude": 121.662969,
    "twoFlavors": false,
    "specialShape": false
  },
  {
    "name": "全家汐止福旺店",
    "address": "新北市汐止區福德一路１０９號",
    "zipCode": 221,
    "latitude": 25.068038,
    "longitude": 121.637782,
    "twoFlavors": false,
    "specialShape": false
  },
  {
    "name": "全家汐止秀峰店",
    "address": "新北市汐止區忠孝東路２２８號",
    "zipCode": 221,
    "latitude": 25.066814,
    "longitude": 121.662365,
    "twoFlavors": false,
    "specialShape": false
  },
  {
    "name": "全家汐止樟中店",
    "address": "新北市汐止區樟樹一路１２７號１樓",
    "zipCode": 221,
    "latitude": 25.064898,
    "longitude": 121.642005,
    "twoFlavors": false,
    "specialShape": false
  },
  {
    "name": "全家汐止福全店",
    "address": "新北市汐止區仁愛路１４９號",
    "zipCode": 221,
    "latitude": 25.064703,
    "longitude": 121.663603,
    "twoFlavors": false,
    "specialShape": false
  },
  {
    "name": "全家汐止新興店",
    "address": "新北市汐止區新興路２１及２３號",
    "zipCode": 221,
    "latitude": 25.0645923944472,
    "longitude": 121.656541738212,
    "twoFlavors": false,
    "specialShape": false
  },
  {
    "name": "全家汐止興龍店",
    "address": "新北市汐止區龍安路３８號１樓",
    "zipCode": 221,
    "latitude": 25.063862,
    "longitude": 121.654568,
    "twoFlavors": false,
    "specialShape": false
  },
  {
    "name": "全家汐止連新店",
    "address": "新北市汐止區新台五路一段１５１號壹樓及地下室",
    "zipCode": 221,
    "latitude": 25.0624,
    "longitude": 121.653501,
    "twoFlavors": false,
    "specialShape": false
  },
  {
    "name": "全家汐止新遠雄店",
    "address": "新北市汐止區新台五路一段９３號地下一層之２",
    "zipCode": 221,
    "latitude": 25.06159322,
    "longitude": 121.64778112,
    "twoFlavors": false,
    "specialShape": false
  },
  {
    "name": "全家汐止莊敬店",
    "address": "新北市汐止區莊敬街１３９號",
    "zipCode": 221,
    "latitude": 25.060758,
    "longitude": 121.654398,
    "twoFlavors": false,
    "specialShape": false
  },
  {
    "name": "全家汐止宏碁店",
    "address": "新北市汐止區新台五路一段８２號部份",
    "zipCode": 221,
    "latitude": 25.060325,
    "longitude": 121.647221,
    "twoFlavors": true,
    "specialShape": false
  },
  {
    "name": "全家汐止力行店",
    "address": "新北市汐止區力行街１號",
    "zipCode": 221,
    "latitude": 25.051247,
    "longitude": 121.617326,
    "twoFlavors": false,
    "specialShape": false
  },
  {
    "name": "全家汐止橫科店",
    "address": "新北市汐止區民權街二段６８號１樓",
    "zipCode": 221,
    "latitude": 25.048457,
    "longitude": 121.61912,
    "twoFlavors": false,
    "specialShape": false
  },
  {
    "name": "全家汐止鑫宜興店",
    "address": "新北市汐止區宜興街１６號",
    "zipCode": 221,
    "latitude": 25.041537,
    "longitude": 121.621377,
    "twoFlavors": false,
    "specialShape": false
  },
  {
    "name": "全家深坑北深店",
    "address": "新北市深坑區北深路三段１７９號",
    "zipCode": 222,
    "latitude": 25.003565,
    "longitude": 121.601592,
    "twoFlavors": false,
    "specialShape": false
  },
  {
    "name": "全家深坑昇高店",
    "address": "新北市深坑區埔新街５９號",
    "zipCode": 222,
    "latitude": 25.002456,
    "longitude": 121.620397,
    "twoFlavors": true,
    "specialShape": false
  },
  {
    "name": "全家石碇國道店",
    "address": "新北市石碇區文山路一段６號",
    "zipCode": 223,
    "latitude": 25.00892197,
    "longitude": 121.6453963,
    "twoFlavors": false,
    "specialShape": false
  },
  {
    "name": "全家瑞芳龍川店",
    "address": "新北市瑞芳區一坑路１１之１號",
    "zipCode": 224,
    "latitude": 25.108771,
    "longitude": 121.804103,
    "twoFlavors": true,
    "specialShape": false
  },
  {
    "name": "全家瑞芳明燈店",
    "address": "新北市瑞芳區民生街２０號１樓及２樓部份",
    "zipCode": 224,
    "latitude": 25.107444,
    "longitude": 121.80574400000002,
    "twoFlavors": false,
    "specialShape": false
  },
  {
    "name": "全家新店大鵬店",
    "address": "新北市新店區中正路６９８號",
    "zipCode": 231,
    "latitude": 24.990571,
    "longitude": 121.534175,
    "twoFlavors": false,
    "specialShape": false
  },
  {
    "name": "全家新店新和店",
    "address": "新北市新店區永安街８１號１樓",
    "zipCode": 231,
    "latitude": 24.986719,
    "longitude": 121.519839,
    "twoFlavors": false,
    "specialShape": false
  },
  {
    "name": "全家新店順安店",
    "address": "新北市新店區順安街５７號",
    "zipCode": 231,
    "latitude": 24.986306,
    "longitude": 121.540703,
    "twoFlavors": false,
    "specialShape": false
  },
  {
    "name": "全家新店皇家店",
    "address": "新北市新店區永平里永平街２７號一樓",
    "zipCode": 231,
    "latitude": 24.983491,
    "longitude": 121.516811,
    "twoFlavors": false,
    "specialShape": false
  },
  {
    "name": "全家新店公宅店",
    "address": "新北市新店區央北二路３９８號",
    "zipCode": 231,
    "latitude": 24.98216842,
    "longitude": 121.52617263,
    "twoFlavors": false,
    "specialShape": false
  },
  {
    "name": "全家新店大坪林店",
    "address": "新北市新店區北新路三段１２６號１樓",
    "zipCode": 231,
    "latitude": 24.981876,
    "longitude": 121.541698,
    "twoFlavors": false,
    "specialShape": false
  },
  {
    "name": "全家新店新豐店",
    "address": "新北市新店區大豐路１０號１樓",
    "zipCode": 231,
    "latitude": 24.980433,
    "longitude": 121.541243,
    "twoFlavors": false,
    "specialShape": false
  },
  {
    "name": "全家新店新民族店",
    "address": "新北市新店區民族路９７號１樓＋地下室",
    "zipCode": 231,
    "latitude": 24.977542,
    "longitude": 121.538639,
    "twoFlavors": true,
    "specialShape": false
  },
  {
    "name": "全家新店七張站店",
    "address": "新北市新店區北新路２段１５０－１號",
    "zipCode": 231,
    "latitude": 24.975196,
    "longitude": 121.543132,
    "twoFlavors": false,
    "specialShape": false
  },
  {
    "name": "全家新店向日葵店",
    "address": "新北市新店區中央五街１０號１樓",
    "zipCode": 231,
    "latitude": 24.974126,
    "longitude": 121.529759,
    "twoFlavors": false,
    "specialShape": false
  },
  {
    "name": "全家新店福民店",
    "address": "新北市新店區中央路１４５號",
    "zipCode": 231,
    "latitude": 24.973447,
    "longitude": 121.530166,
    "twoFlavors": false,
    "specialShape": false
  },
  {
    "name": "全家新店正民店",
    "address": "新北市新店區中正路２２４號",
    "zipCode": 231,
    "latitude": 24.972845,
    "longitude": 121.540174,
    "twoFlavors": false,
    "specialShape": false
  },
  {
    "name": "全家新店三富店",
    "address": "新北市新店區三民路１４１號１樓",
    "zipCode": 231,
    "latitude": 24.972674,
    "longitude": 121.534182,
    "twoFlavors": false,
    "specialShape": false
  },
  {
    "name": "全家新店華盛店",
    "address": "新北市新店區中正路１４３號１樓",
    "zipCode": 231,
    "latitude": 24.971545,
    "longitude": 121.541517,
    "twoFlavors": false,
    "specialShape": false
  },
  {
    "name": "全家新店安順店",
    "address": "新北市新店區安民街１９２號１樓",
    "zipCode": 231,
    "latitude": 24.971245,
    "longitude": 121.517069,
    "twoFlavors": false,
    "specialShape": false
  },
  {
    "name": "全家新店中華店",
    "address": "新北市新店區中華路５０號",
    "zipCode": 231,
    "latitude": 24.968525,
    "longitude": 121.539671,
    "twoFlavors": false,
    "specialShape": false
  },
  {
    "name": "全家新店中政店",
    "address": "新北市新店區檳榔路１３－２號１樓",
    "zipCode": 231,
    "latitude": 24.964464,
    "longitude": 121.541289,
    "twoFlavors": false,
    "specialShape": false
  },
  {
    "name": "全家新店安民店",
    "address": "新北市新店區安民街１號１樓",
    "zipCode": 231,
    "latitude": 24.964055,
    "longitude": 121.515154,
    "twoFlavors": false,
    "specialShape": false
  },
  {
    "name": "全家新店文明店",
    "address": "新北市新店區光明街２２６號１樓",
    "zipCode": 231,
    "latitude": 24.96314,
    "longitude": 121.540187,
    "twoFlavors": false,
    "specialShape": false
  },
  {
    "name": "全家新店襄陽店",
    "address": "新北市新店區安祥路１０４－１０號",
    "zipCode": 231,
    "latitude": 24.962189,
    "longitude": 121.47911,
    "twoFlavors": true,
    "specialShape": false
  },
  {
    "name": "全家新店康德店",
    "address": "新北市新店區安德街７１巷２號、４號１樓",
    "zipCode": 231,
    "latitude": 24.961509,
    "longitude": 121.510286,
    "twoFlavors": false,
    "specialShape": false
  },
  {
    "name": "全家新店德順店",
    "address": "新北市新店區安德街１２０巷６號",
    "zipCode": 231,
    "latitude": 24.960757,
    "longitude": 121.508878,
    "twoFlavors": false,
    "specialShape": false
  },
  {
    "name": "全家新店永安店",
    "address": "新北市新店區安康路二段１５７號",
    "zipCode": 231,
    "latitude": 24.959581,
    "longitude": 121.510453,
    "twoFlavors": false,
    "specialShape": false
  },
  {
    "name": "全家新店陽光店",
    "address": "新北市新店區安忠路５７巷１０號１樓",
    "zipCode": 231,
    "latitude": 24.959181,
    "longitude": 121.513308,
    "twoFlavors": true,
    "specialShape": false
  },
  {
    "name": "全家新店站前店",
    "address": "新北市新店區北宜路一段６號",
    "zipCode": 231,
    "latitude": 24.957793,
    "longitude": 121.537924,
    "twoFlavors": false,
    "specialShape": false
  },
  {
    "name": "全家新店香坡店",
    "address": "新北市新店區安祥路１１３號，１１５號",
    "zipCode": 231,
    "latitude": 24.956779,
    "longitude": 121.475208,
    "twoFlavors": false,
    "specialShape": false
  },
  {
    "name": "全家新店北宜店",
    "address": "新北市新店區北宜路二段１８號１樓＋地下室",
    "zipCode": 231,
    "latitude": 24.951657,
    "longitude": 121.547908,
    "twoFlavors": false,
    "specialShape": false
  },
  {
    "name": "全家新店黎明店",
    "address": "新北市新店區黎明路４１號１樓",
    "zipCode": 231,
    "latitude": 24.949573,
    "longitude": 121.502166,
    "twoFlavors": false,
    "specialShape": false
  },
  {
    "name": "全家新店玫瑰店",
    "address": "新北市新店區玫瑰路５８巷１號１樓",
    "zipCode": 231,
    "latitude": 24.946516,
    "longitude": 121.495433,
    "twoFlavors": false,
    "specialShape": false
  },
  {
    "name": "全家烏來溫泉店",
    "address": "新北市烏來區烏來街７９號１樓",
    "zipCode": 233,
    "latitude": 24.864574,
    "longitude": 121.552002,
    "twoFlavors": true,
    "specialShape": false
  },
  {
    "name": "全家永和仁保店",
    "address": "新北市永和區保福路二段１０３號１樓",
    "zipCode": 234,
    "latitude": 25.013257,
    "longitude": 121.510296,
    "twoFlavors": false,
    "specialShape": false
  },
  {
    "name": "全家永和鼎豐店",
    "address": "新北市永和區中興街７號１樓",
    "zipCode": 234,
    "latitude": 25.012091,
    "longitude": 121.515669,
    "twoFlavors": false,
    "specialShape": false
  },
  {
    "name": "全家永和耕莘店",
    "address": "新北市永和區中興街９５號１樓",
    "zipCode": 234,
    "latitude": 25.01209,
    "longitude": 121.517743,
    "twoFlavors": false,
    "specialShape": false
  },
  {
    "name": "全家永和永平店",
    "address": "新北市永和區永平路２３２號",
    "zipCode": 234,
    "latitude": 25.010925,
    "longitude": 121.508854,
    "twoFlavors": false,
    "specialShape": false
  },
  {
    "name": "全家永和御林店",
    "address": "新北市永和區竹林路２１３巷４４號１樓",
    "zipCode": 234,
    "latitude": 25.009099,
    "longitude": 121.523133,
    "twoFlavors": false,
    "specialShape": false
  },
  {
    "name": "全家永和竹勝店",
    "address": "新北市永和區竹林路２１５號１樓",
    "zipCode": 234,
    "latitude": 25.008817,
    "longitude": 121.520803,
    "twoFlavors": false,
    "specialShape": false
  },
  {
    "name": "全家永和保順店",
    "address": "新北市永和區仁愛路２８２巷１號１樓",
    "zipCode": 234,
    "latitude": 25.008754,
    "longitude": 121.503079,
    "twoFlavors": false,
    "specialShape": false
  },
  {
    "name": "全家永和福和店",
    "address": "新北市永和區福和路１７３．１７５號",
    "zipCode": 234,
    "latitude": 25.007607,
    "longitude": 121.520004,
    "twoFlavors": false,
    "specialShape": false
  },
  {
    "name": "全家永和大福店",
    "address": "新北市永和區中正路６０８．６１０．６１０之１號",
    "zipCode": 234,
    "latitude": 25.007253,
    "longitude": 121.517058,
    "twoFlavors": true,
    "specialShape": false
  },
  {
    "name": "全家永和永亨店",
    "address": "新北市永和區永亨路６２號、６４號、６６號１樓",
    "zipCode": 234,
    "latitude": 25.00615,
    "longitude": 121.520604,
    "twoFlavors": false,
    "specialShape": false
  },
  {
    "name": "全家永和國和店",
    "address": "新北市永和區國中路８６巷２號",
    "zipCode": 234,
    "latitude": 25.005963,
    "longitude": 121.524803,
    "twoFlavors": false,
    "specialShape": false
  },
  {
    "name": "全家永和秀和店",
    "address": "新北市永和區秀朗路一段７６、７８號",
    "zipCode": 234,
    "latitude": 25.005954,
    "longitude": 121.515491,
    "twoFlavors": false,
    "specialShape": false
  },
  {
    "name": "全家永和維源店",
    "address": "新北市永和區水源街３９巷２號",
    "zipCode": 234,
    "latitude": 25.004235,
    "longitude": 121.510299,
    "twoFlavors": true,
    "specialShape": false
  },
  {
    "name": "全家永和復興店",
    "address": "新北市永和區秀朗路一段１８６號１Ｆ",
    "zipCode": 234,
    "latitude": 25.003178,
    "longitude": 121.519183,
    "twoFlavors": false,
    "specialShape": false
  },
  {
    "name": "全家永和秀成店",
    "address": "新北市永和區成功路一段１３７，１３９號",
    "zipCode": 234,
    "latitude": 25.001611,
    "longitude": 121.526907,
    "twoFlavors": false,
    "specialShape": false
  },
  {
    "name": "全家永和正得店",
    "address": "新北市永和區中正路３４２號一樓",
    "zipCode": 234,
    "latitude": 25.000326,
    "longitude": 121.517809,
    "twoFlavors": true,
    "specialShape": false
  },
  {
    "name": "全家永和正新店",
    "address": "新北市永和區中正路２７８號１樓",
    "zipCode": 234,
    "latitude": 24.998809,
    "longitude": 121.516947,
    "twoFlavors": true,
    "specialShape": false
  },
  {
    "name": "全家永和騎士店",
    "address": "新北市永和區民權路５３號１樓",
    "zipCode": 234,
    "latitude": 24.996832,
    "longitude": 121.520006,
    "twoFlavors": false,
    "specialShape": false
  },
  {
    "name": "全家中和金原店",
    "address": "新北市中和區中原街１２６號１樓",
    "zipCode": 235,
    "latitude": 25.01096672,
    "longitude": 121.48580189,
    "twoFlavors": false,
    "specialShape": false
  },
  {
    "name": "全家中和福美店",
    "address": "新北市中和區永和路７４號１樓",
    "zipCode": 235,
    "latitude": 25.005234,
    "longitude": 121.49774,
    "twoFlavors": false,
    "specialShape": false
  },
  {
    "name": "全家中和員美店",
    "address": "新北市中和區莊敬路４３號１樓",
    "zipCode": 235,
    "latitude": 25.005172,
    "longitude": 121.500941,
    "twoFlavors": false,
    "specialShape": false
  },
  {
    "name": "全家中和新福祥店",
    "address": "新北市中和區福祥路４２號",
    "zipCode": 235,
    "latitude": 25.003992,
    "longitude": 121.499478,
    "twoFlavors": true,
    "specialShape": false
  },
  {
    "name": "全家中和永貞店",
    "address": "新北市中和區永貞路２４４號",
    "zipCode": 235,
    "latitude": 25.003823,
    "longitude": 121.51427,
    "twoFlavors": false,
    "specialShape": false
  },
  {
    "name": "全家中和佳和店",
    "address": "新北市中和區佳和里中山路二段１３２號、１３４號１樓",
    "zipCode": 235,
    "latitude": 25.003492,
    "longitude": 121.502312,
    "twoFlavors": true,
    "specialShape": false
  },
  {
    "name": "全家中和福真店",
    "address": "新北市中和區景平路７０１、７０１之１號２樓",
    "zipCode": 235,
    "latitude": 25.003492,
    "longitude": 121.49643,
    "twoFlavors": false,
    "specialShape": false
  },
  {
    "name": "全家中和福中店",
    "address": "新北市中和區景平路７１０號１號",
    "zipCode": 235,
    "latitude": 25.002704,
    "longitude": 121.496807,
    "twoFlavors": false,
    "specialShape": false
  },
  {
    "name": "全家中和中鼎店",
    "address": "新北市中和區中安里中安街８０號一樓",
    "zipCode": 235,
    "latitude": 25.001877,
    "longitude": 121.512095,
    "twoFlavors": false,
    "specialShape": false
  },
  {
    "name": "全家中和自強店",
    "address": "新北市中和區莒光路１３１號",
    "zipCode": 235,
    "latitude": 25.001821,
    "longitude": 121.472629,
    "twoFlavors": false,
    "specialShape": false
  },
  {
    "name": "全家中和圓順店",
    "address": "新北市中和區建一路１４１號",
    "zipCode": 235,
    "latitude": 25.000772,
    "longitude": 121.488252,
    "twoFlavors": false,
    "specialShape": false
  },
  {
    "name": "全家中和泰和店",
    "address": "新北市中和區泰和街３８巷１號１樓",
    "zipCode": 235,
    "latitude": 25.00009,
    "longitude": 121.499177,
    "twoFlavors": true,
    "specialShape": false
  },
  {
    "name": "全家中和新正店",
    "address": "新北市中和區新生街１９０號１樓",
    "zipCode": 235,
    "latitude": 24.99955,
    "longitude": 121.483695,
    "twoFlavors": true,
    "specialShape": false
  },
  {
    "name": "全家中和中安店",
    "address": "新北市中和區中安街１９２號",
    "zipCode": 235,
    "latitude": 24.999189,
    "longitude": 121.511399,
    "twoFlavors": true,
    "specialShape": false
  },
  {
    "name": "全家中和嘉穗店",
    "address": "新北市中和區民利街９１號１樓",
    "zipCode": 235,
    "latitude": 24.9979,
    "longitude": 121.477954,
    "twoFlavors": false,
    "specialShape": false
  },
  {
    "name": "全家中和平順店",
    "address": "新北市中和區宜安路４９號１樓",
    "zipCode": 235,
    "latitude": 24.996717,
    "longitude": 121.511753,
    "twoFlavors": false,
    "specialShape": false
  },
  {
    "name": "全家中和秀吉店",
    "address": "新北市中和區自立路１７號",
    "zipCode": 235,
    "latitude": 24.996081,
    "longitude": 121.52234,
    "twoFlavors": true,
    "specialShape": false
  },
  {
    "name": "全家中和景會店",
    "address": "新北市中和區景平路４３３號１樓",
    "zipCode": 235,
    "latitude": 24.995722,
    "longitude": 121.500961,
    "twoFlavors": false,
    "specialShape": false
  },
  {
    "name": "全家中和景明店",
    "address": "新北市中和區景新街２１２號１樓",
    "zipCode": 235,
    "latitude": 24.995178,
    "longitude": 121.506997,
    "twoFlavors": false,
    "specialShape": false
  },
  {
    "name": "全家中和捷勝店",
    "address": "新北市中和區景安路１２８號１樓",
    "zipCode": 235,
    "latitude": 24.994598,
    "longitude": 121.505128,
    "twoFlavors": false,
    "specialShape": false
  },
  {
    "name": "全家中和鎮順店",
    "address": "新北市中和區中正路１６７巷１６號、１８號１樓",
    "zipCode": 235,
    "latitude": 24.992807,
    "longitude": 121.498235,
    "twoFlavors": false,
    "specialShape": false
  },
  {
    "name": "全家東森一號店",
    "address": "新北市中和區景平路２５８號１樓",
    "zipCode": 235,
    "latitude": 24.992555,
    "longitude": 121.514899,
    "twoFlavors": false,
    "specialShape": false
  },
  {
    "name": "全家中和摩天店",
    "address": "新北市中和區景平路１８２號１樓",
    "zipCode": 235,
    "latitude": 24.992388,
    "longitude": 121.516444,
    "twoFlavors": false,
    "specialShape": false
  },
  {
    "name": "全家中和景秀店",
    "address": "新北市中和區景平路７１—２號",
    "zipCode": 235,
    "latitude": 24.991359,
    "longitude": 121.519392,
    "twoFlavors": false,
    "specialShape": false
  },
  {
    "name": "全家中和和平店",
    "address": "新北市中和區和平街５６號１樓；５４巷１弄１號１樓",
    "zipCode": 235,
    "latitude": 24.990857,
    "longitude": 121.508552,
    "twoFlavors": false,
    "specialShape": false
  },
  {
    "name": "全家中和秀欣店",
    "address": "新北市中和區復興路２６７號１樓及地下室",
    "zipCode": 235,
    "latitude": 24.990223,
    "longitude": 121.502622,
    "twoFlavors": false,
    "specialShape": false
  },
  {
    "name": "全家中和平興店",
    "address": "新北市中和區和平街２０號",
    "zipCode": 235,
    "latitude": 24.990202,
    "longitude": 121.509849,
    "twoFlavors": false,
    "specialShape": false
  },
  {
    "name": "全家中和錦順店",
    "address": "新北市中和區圓通路３９５號１樓",
    "zipCode": 235,
    "latitude": 24.989114,
    "longitude": 121.489494,
    "twoFlavors": false,
    "specialShape": false
  },
  {
    "name": "全家中和鑫發店",
    "address": "新北市中和區忠孝街１０５號",
    "zipCode": 235,
    "latitude": 24.986399,
    "longitude": 121.511862,
    "twoFlavors": false,
    "specialShape": false
  },
  {
    "name": "全家中和華樹店",
    "address": "新北市中和區華新街５５號１樓",
    "zipCode": 235,
    "latitude": 24.984435,
    "longitude": 121.507928,
    "twoFlavors": false,
    "specialShape": false
  },
  {
    "name": "全家中和華夏店",
    "address": "新北市中和區華新街２０２號，２０４號",
    "zipCode": 235,
    "latitude": 24.981988,
    "longitude": 121.506682,
    "twoFlavors": false,
    "specialShape": false
  },
  {
    "name": "全家土城鑫延店",
    "address": "新北市土城區延和路２０７號一樓",
    "zipCode": 236,
    "latitude": 24.990097,
    "longitude": 121.469636,
    "twoFlavors": false,
    "specialShape": false
  },
  {
    "name": "全家土城御昇店",
    "address": "新北市土城區裕生路１２號１樓",
    "zipCode": 236,
    "latitude": 24.987618,
    "longitude": 121.448218,
    "twoFlavors": false,
    "specialShape": false
  },
  {
    "name": "全家土城廣福店",
    "address": "新北市土城區學府路一段１６２號",
    "zipCode": 236,
    "latitude": 24.986784,
    "longitude": 121.454196,
    "twoFlavors": false,
    "specialShape": false
  },
  {
    "name": "全家土城海裕店",
    "address": "新北市土城區裕民路９２巷２２弄３號１樓",
    "zipCode": 236,
    "latitude": 24.986367,
    "longitude": 121.449456,
    "twoFlavors": false,
    "specialShape": false
  },
  {
    "name": "全家土城新豐店",
    "address": "新北市土城區明（上山＋下夆）街９號１樓",
    "zipCode": 236,
    "latitude": 24.985881,
    "longitude": 121.46564,
    "twoFlavors": false,
    "specialShape": false
  },
  {
    "name": "全家土城裕成店",
    "address": "新北市土城區裕民路２１０號",
    "zipCode": 236,
    "latitude": 24.984501,
    "longitude": 121.453316,
    "twoFlavors": false,
    "specialShape": false
  },
  {
    "name": "全家土城永富店",
    "address": "新北市土城區永豐路２０２巷３－１號１樓",
    "zipCode": 236,
    "latitude": 24.98322,
    "longitude": 121.466493,
    "twoFlavors": false,
    "specialShape": false
  },
  {
    "name": "全家土城雲陽店",
    "address": "新北市土城區青雲路１８５號１樓",
    "zipCode": 236,
    "latitude": 24.982586,
    "longitude": 121.459302,
    "twoFlavors": false,
    "specialShape": false
  },
  {
    "name": "全家土城莊園店",
    "address": "新北市土城區莊園街１００號＋１０２號１樓（配送用）",
    "zipCode": 236,
    "latitude": 24.982,
    "longitude": 121.4457,
    "twoFlavors": true,
    "specialShape": false
  },
  {
    "name": "全家土城新仁愛店",
    "address": "新北市土城區清水路１７２號一樓",
    "zipCode": 236,
    "latitude": 24.981573,
    "longitude": 121.459918,
    "twoFlavors": false,
    "specialShape": false
  },
  {
    "name": "全家土城龍山店",
    "address": "新北市土城區龍山一街１７號",
    "zipCode": 236,
    "latitude": 24.97689942,
    "longitude": 121.44745063,
    "twoFlavors": false,
    "specialShape": false
  },
  {
    "name": "全家土城城堡店",
    "address": "新北市土城區福仁街５０巷１號",
    "zipCode": 236,
    "latitude": 24.975089,
    "longitude": 121.439596,
    "twoFlavors": false,
    "specialShape": false
  },
  {
    "name": "全家土城永寧店",
    "address": "新北市土城區中央路三段７４－１號＆７４號１樓",
    "zipCode": 236,
    "latitude": 24.96729,
    "longitude": 121.436335,
    "twoFlavors": false,
    "specialShape": false
  },
  {
    "name": "全家三峽大德店",
    "address": "新北市三峽區大德路４８３號１樓",
    "zipCode": 237,
    "latitude": 24.947523,
    "longitude": 121.374191,
    "twoFlavors": false,
    "specialShape": false
  },
  {
    "name": "全家三峽觀成店",
    "address": "新北市三峽區大觀路８０號１樓",
    "zipCode": 237,
    "latitude": 24.946284,
    "longitude": 121.374186,
    "twoFlavors": false,
    "specialShape": false
  },
  {
    "name": "全家三峽心湖店",
    "address": "新北市三峽區大學路１５１號１樓（心湖會館）",
    "zipCode": 237,
    "latitude": 24.945158,
    "longitude": 121.373141,
    "twoFlavors": false,
    "specialShape": false
  },
  {
    "name": "全家三峽國寧店",
    "address": "新北市三峽區國學街３１．３３號",
    "zipCode": 237,
    "latitude": 24.942315,
    "longitude": 121.372776,
    "twoFlavors": false,
    "specialShape": false
  },
  {
    "name": "全家三峽峇里店",
    "address": "新北市三峽區鳶山里中山路３０３號一樓",
    "zipCode": 237,
    "latitude": 24.937727,
    "longitude": 121.361248,
    "twoFlavors": false,
    "specialShape": false
  },
  {
    "name": "全家三峽錦隆店",
    "address": "新北市三峽區國光街１號１樓",
    "zipCode": 237,
    "latitude": 24.936621,
    "longitude": 121.375602,
    "twoFlavors": false,
    "specialShape": false
  },
  {
    "name": "全家三峽光明店",
    "address": "新北市三峽區光明路６號，８號１樓",
    "zipCode": 237,
    "latitude": 24.931202,
    "longitude": 121.373001,
    "twoFlavors": false,
    "specialShape": false
  },
  {
    "name": "全家三峽同發店",
    "address": "新北市三峽區大同路３－１號１樓及地下層全部",
    "zipCode": 237,
    "latitude": 24.929081,
    "longitude": 121.37774,
    "twoFlavors": true,
    "specialShape": false
  },
  {
    "name": "全家樹林三福店",
    "address": "新北市樹林區三福街４５號１樓",
    "zipCode": 238,
    "latitude": 25.016544,
    "longitude": 121.408201,
    "twoFlavors": true,
    "specialShape": false
  },
  {
    "name": "全家樹林中新店",
    "address": "新北市樹林區中山路一段１０８巷２２號",
    "zipCode": 238,
    "latitude": 24.991331,
    "longitude": 121.4221,
    "twoFlavors": false,
    "specialShape": false
  },
  {
    "name": "全家樹林車站店",
    "address": "新北市樹林區後站街８號",
    "zipCode": 238,
    "latitude": 24.991251,
    "longitude": 121.423798,
    "twoFlavors": true,
    "specialShape": false
  },
  {
    "name": "全家樹林復興店",
    "address": "新北市樹林區復興路２７２號，２７４號",
    "zipCode": 238,
    "latitude": 24.988619,
    "longitude": 121.418246,
    "twoFlavors": false,
    "specialShape": false
  },
  {
    "name": "全家樹林大安店",
    "address": "新北市樹林區大安路５０１號１樓",
    "zipCode": 238,
    "latitude": 24.986277,
    "longitude": 121.414211,
    "twoFlavors": false,
    "specialShape": false
  },
  {
    "name": "全家樹林五圓店",
    "address": "新北市樹林區忠孝街９９號１樓",
    "zipCode": 238,
    "latitude": 24.980973,
    "longitude": 121.424422,
    "twoFlavors": false,
    "specialShape": false
  },
  {
    "name": "全家樹林新育園店",
    "address": "新北市樹林區佳園路一段４５號",
    "zipCode": 238,
    "latitude": 24.970566,
    "longitude": 121.393178,
    "twoFlavors": false,
    "specialShape": false
  },
  {
    "name": "全家樹林學勤店",
    "address": "新北市樹林區學勤路５５０．５５２號１樓",
    "zipCode": 238,
    "latitude": 24.948324,
    "longitude": 121.384045,
    "twoFlavors": false,
    "specialShape": false
  },
  {
    "name": "全家樹林學園店",
    "address": "新北市樹林區學成路６０１號１樓",
    "zipCode": 238,
    "latitude": 24.946301,
    "longitude": 121.381742,
    "twoFlavors": false,
    "specialShape": false
  },
  {
    "name": "全家鶯歌永和店",
    "address": "新北市鶯歌區永和街１５１號１樓",
    "zipCode": 239,
    "latitude": 24.969164,
    "longitude": 121.334417,
    "twoFlavors": true,
    "specialShape": false
  },
  {
    "name": "全家鶯歌永富店",
    "address": "新北市鶯歌區德昌街３８號",
    "zipCode": 239,
    "latitude": 24.960202,
    "longitude": 121.333384,
    "twoFlavors": false,
    "specialShape": false
  },
  {
    "name": "全家鶯歌行政店",
    "address": "新北市鶯歌區中正一路１５４號",
    "zipCode": 239,
    "latitude": 24.955987,
    "longitude": 121.352267,
    "twoFlavors": false,
    "specialShape": false
  },
  {
    "name": "全家鶯歌站前店",
    "address": "新北市鶯歌區建國路５３之５號、、５３之６號１樓",
    "zipCode": 239,
    "latitude": 24.955117,
    "longitude": 121.35509,
    "twoFlavors": true,
    "specialShape": false
  },
  {
    "name": "全家鶯歌新南雅店",
    "address": "新北市鶯歌區南雅路４４２號",
    "zipCode": 239,
    "latitude": 24.953952,
    "longitude": 121.346144,
    "twoFlavors": false,
    "specialShape": false
  },
  {
    "name": "全家鶯歌建新店",
    "address": "新北市鶯歌區國慶街１３９－１號",
    "zipCode": 239,
    "latitude": 24.95369,
    "longitude": 121.350894,
    "twoFlavors": false,
    "specialShape": false
  },
  {
    "name": "全家鶯歌鶯桃店",
    "address": "新北市鶯歌區鶯桃路４５號１樓",
    "zipCode": 239,
    "latitude": 24.951592,
    "longitude": 121.342094,
    "twoFlavors": false,
    "specialShape": false
  },
  {
    "name": "全家鶯歌國中店",
    "address": "新北市鶯歌區國中街８２號",
    "zipCode": 239,
    "latitude": 24.941621,
    "longitude": 121.341617,
    "twoFlavors": false,
    "specialShape": false
  },
  {
    "name": "全家三重新北店",
    "address": "新北市三重區五華街２５５號一樓",
    "zipCode": 241,
    "latitude": 25.086419,
    "longitude": 121.488911,
    "twoFlavors": false,
    "specialShape": false
  },
  {
    "name": "全家三重永安店",
    "address": "新北市三重區永安北路二段１１號１樓",
    "zipCode": 241,
    "latitude": 25.081318,
    "longitude": 121.481924,
    "twoFlavors": false,
    "specialShape": false
  },
  {
    "name": "全家三重新仁義店",
    "address": "新北市三重區仁義街１６４號１樓",
    "zipCode": 241,
    "latitude": 25.080964,
    "longitude": 121.497062,
    "twoFlavors": false,
    "specialShape": false
  },
  {
    "name": "全家三重仁美店",
    "address": "新北市三重區仁美街１０４號",
    "zipCode": 241,
    "latitude": 25.08063,
    "longitude": 121.485602,
    "twoFlavors": true,
    "specialShape": false
  },
  {
    "name": "全家三重溪尾店",
    "address": "新北市三重區溪尾街１６０號１樓",
    "zipCode": 241,
    "latitude": 25.080191,
    "longitude": 121.488762,
    "twoFlavors": true,
    "specialShape": false
  },
  {
    "name": "全家三重福運店",
    "address": "新北市三重區三和路四段２５０號１樓",
    "zipCode": 241,
    "latitude": 25.076841,
    "longitude": 121.486031,
    "twoFlavors": true,
    "specialShape": false
  },
  {
    "name": "全家三重仁興店",
    "address": "新北市三重區仁興街３９巷４１號１樓及地下室",
    "zipCode": 241,
    "latitude": 25.076087,
    "longitude": 121.50001,
    "twoFlavors": false,
    "specialShape": false
  },
  {
    "name": "全家三重車路頭店",
    "address": "新北市三重區車路頭街１４０號１樓及地下室",
    "zipCode": 241,
    "latitude": 25.075728,
    "longitude": 121.483984,
    "twoFlavors": false,
    "specialShape": false
  },
  {
    "name": "全家三重車勇店",
    "address": "新北市三重區大勇街１號１樓",
    "zipCode": 241,
    "latitude": 25.071419,
    "longitude": 121.483715,
    "twoFlavors": true,
    "specialShape": false
  },
  {
    "name": "全家三重三張店",
    "address": "新北市三重區三張街１０８號１樓",
    "zipCode": 241,
    "latitude": 25.069864,
    "longitude": 121.487541,
    "twoFlavors": false,
    "specialShape": false
  },
  {
    "name": "全家三重正義北店",
    "address": "新北市三重區正義北路２５３號１樓",
    "zipCode": 241,
    "latitude": 25.069684,
    "longitude": 121.495656,
    "twoFlavors": false,
    "specialShape": false
  },
  {
    "name": "全家三重民生店",
    "address": "新北市三重區民生東街２號",
    "zipCode": 241,
    "latitude": 25.068267,
    "longitude": 121.492489,
    "twoFlavors": false,
    "specialShape": false
  },
  {
    "name": "全家三重頂崁店",
    "address": "新北市三重區博愛里２２鄰頂崁街２１０巷３１號１樓",
    "zipCode": 241,
    "latitude": 25.068188,
    "longitude": 121.475569,
    "twoFlavors": false,
    "specialShape": false
  },
  {
    "name": "全家三重大智店",
    "address": "新北市三重區大智街９４號",
    "zipCode": 241,
    "latitude": 25.066271,
    "longitude": 121.493451,
    "twoFlavors": false,
    "specialShape": false
  },
  {
    "name": "全家三重三佾店",
    "address": "新北市三重區中央北路５８號１樓",
    "zipCode": 241,
    "latitude": 25.065549,
    "longitude": 121.500477,
    "twoFlavors": false,
    "specialShape": false
  },
  {
    "name": "全家三重大榮店",
    "address": "新北市三重區文化北路１５號１樓",
    "zipCode": 241,
    "latitude": 25.063643,
    "longitude": 121.499752,
    "twoFlavors": false,
    "specialShape": false
  },
  {
    "name": "全家三重大橋店",
    "address": "新北市三重區福德南路１０號１樓",
    "zipCode": 241,
    "latitude": 25.06351,
    "longitude": 121.502806,
    "twoFlavors": false,
    "specialShape": false
  },
  {
    "name": "全家三重三民店",
    "address": "新北市三重區三民街１１２號",
    "zipCode": 241,
    "latitude": 25.063427,
    "longitude": 121.485021,
    "twoFlavors": false,
    "specialShape": false
  },
  {
    "name": "全家三重中央店",
    "address": "新北市三重區中央南路５１號１樓",
    "zipCode": 241,
    "latitude": 25.061707,
    "longitude": 121.501267,
    "twoFlavors": false,
    "specialShape": false
  },
  {
    "name": "全家三重華山店",
    "address": "新北市三重區中華路２８號",
    "zipCode": 241,
    "latitude": 25.061114,
    "longitude": 121.483338,
    "twoFlavors": false,
    "specialShape": false
  },
  {
    "name": "全家三重金陽店",
    "address": "新北市三重區重陽路一段７９號１樓",
    "zipCode": 241,
    "latitude": 25.05892773,
    "longitude": 121.48687773,
    "twoFlavors": false,
    "specialShape": false
  },
  {
    "name": "全家三重永春店",
    "address": "新北市三重區中正南路１１７號１樓",
    "zipCode": 241,
    "latitude": 25.057402,
    "longitude": 121.493957,
    "twoFlavors": false,
    "specialShape": false
  },
  {
    "name": "全家三重新運店",
    "address": "新北市三重區捷運路１９巷６弄２０號１樓",
    "zipCode": 241,
    "latitude": 25.05675,
    "longitude": 121.484392,
    "twoFlavors": false,
    "specialShape": false
  },
  {
    "name": "全家三重新集明店",
    "address": "新北市三重區集美街１１８號１樓",
    "zipCode": 241,
    "latitude": 25.053771,
    "longitude": 121.488804,
    "twoFlavors": false,
    "specialShape": false
  },
  {
    "name": "全家三重谷王店",
    "address": "新北市三重區五谷王北街１７１號１樓",
    "zipCode": 241,
    "latitude": 25.053555,
    "longitude": 121.476684,
    "twoFlavors": false,
    "specialShape": false
  },
  {
    "name": "全家三重湯城店",
    "address": "新北市三重區重新路５段６０９巷１４號之７＆之８",
    "zipCode": 241,
    "latitude": 25.046149,
    "longitude": 121.467362,
    "twoFlavors": false,
    "specialShape": false
  },
  {
    "name": "全家新莊新工店",
    "address": "新北市新莊區福興里五工二路８１號一樓",
    "zipCode": 242,
    "latitude": 25.066227,
    "longitude": 121.459812,
    "twoFlavors": false,
    "specialShape": false
  },
  {
    "name": "全家新莊中央店",
    "address": "新北市新莊區中央路５５８號１樓",
    "zipCode": 242,
    "latitude": 25.058923,
    "longitude": 121.448843,
    "twoFlavors": false,
    "specialShape": false
  },
  {
    "name": "全家新莊福美店",
    "address": "新北市新莊區福美街１２６號１樓",
    "zipCode": 242,
    "latitude": 25.057472,
    "longitude": 121.460798,
    "twoFlavors": false,
    "specialShape": false
  },
  {
    "name": "全家新莊樹成店",
    "address": "新北市新莊區化成路７３８號",
    "zipCode": 242,
    "latitude": 25.057443,
    "longitude": 121.465638,
    "twoFlavors": false,
    "specialShape": false
  },
  {
    "name": "全家新莊中悅店",
    "address": "新北市新莊區中平路４００號１樓",
    "zipCode": 242,
    "latitude": 25.05451642,
    "longitude": 121.44492063,
    "twoFlavors": false,
    "specialShape": false
  },
  {
    "name": "全家新莊中原店",
    "address": "新北市新莊區中原路２９７號",
    "zipCode": 242,
    "latitude": 25.054248,
    "longitude": 121.447652,
    "twoFlavors": false,
    "specialShape": false
  },
  {
    "name": "全家新莊福壽店",
    "address": "新北市新莊區中原路４５號",
    "zipCode": 242,
    "latitude": 25.054244,
    "longitude": 121.458108,
    "twoFlavors": false,
    "specialShape": false
  },
  {
    "name": "全家新莊合康店",
    "address": "新北市新莊區中原東路１２５號全部",
    "zipCode": 242,
    "latitude": 25.05420607,
    "longitude": 121.46129704,
    "twoFlavors": false,
    "specialShape": false
  },
  {
    "name": "全家新莊忠承店",
    "address": "新北市新莊區中平路３７７巷２號１樓",
    "zipCode": 242,
    "latitude": 25.052677,
    "longitude": 121.444391,
    "twoFlavors": false,
    "specialShape": false
  },
  {
    "name": "全家新莊新中平店",
    "address": "新北市新莊區中平路２９０號１樓",
    "zipCode": 242,
    "latitude": 25.051394,
    "longitude": 121.444822,
    "twoFlavors": false,
    "specialShape": false
  },
  {
    "name": "全家新莊中環店",
    "address": "新北市新莊區中和街１５５巷２號１樓＋２樓部分",
    "zipCode": 242,
    "latitude": 25.049903,
    "longitude": 121.447248,
    "twoFlavors": true,
    "specialShape": false
  },
  {
    "name": "全家新莊新自成店",
    "address": "新北市新莊區自信街１２號１樓",
    "zipCode": 242,
    "latitude": 25.048205,
    "longitude": 121.453551,
    "twoFlavors": false,
    "specialShape": false
  },
  {
    "name": "全家新莊福樂店",
    "address": "新北市新莊區福樂街３０號１樓",
    "zipCode": 242,
    "latitude": 25.04549,
    "longitude": 121.45792,
    "twoFlavors": false,
    "specialShape": false
  },
  {
    "name": "全家新莊立功店",
    "address": "新北市新莊區中平路１２號１樓及地下室",
    "zipCode": 242,
    "latitude": 25.042856,
    "longitude": 121.444817,
    "twoFlavors": false,
    "specialShape": false
  },
  {
    "name": "全家新莊中港店",
    "address": "新北市新莊區中港路１２６號",
    "zipCode": 242,
    "latitude": 25.040356,
    "longitude": 121.455333,
    "twoFlavors": false,
    "specialShape": false
  },
  {
    "name": "全家新莊華運店",
    "address": "新北市新莊區中華路一段６７號１樓＋地下室",
    "zipCode": 242,
    "latitude": 25.03974,
    "longitude": 121.452141,
    "twoFlavors": false,
    "specialShape": false
  },
  {
    "name": "全家新莊新園寧店",
    "address": "新北市新莊區建興街１０１號",
    "zipCode": 242,
    "latitude": 25.039558,
    "longitude": 121.449688,
    "twoFlavors": false,
    "specialShape": false
  },
  {
    "name": "全家新莊華寧店",
    "address": "新北市新莊區中華路１段８號１樓",
    "zipCode": 242,
    "latitude": 25.036709,
    "longitude": 121.452151,
    "twoFlavors": true,
    "specialShape": false
  },
  {
    "name": "全家新莊金豐店",
    "address": "新北市新莊區豐年街６６號１樓",
    "zipCode": 242,
    "latitude": 25.031631,
    "longitude": 121.446367,
    "twoFlavors": false,
    "specialShape": false
  },
  {
    "name": "全家新莊天成店",
    "address": "新北市新莊區新北大道七段２１９號",
    "zipCode": 242,
    "latitude": 25.030111,
    "longitude": 121.41367,
    "twoFlavors": false,
    "specialShape": false
  },
  {
    "name": "全家新莊新雙鳳店",
    "address": "新北市新莊區天祥街２號",
    "zipCode": 242,
    "latitude": 25.026929,
    "longitude": 121.417218,
    "twoFlavors": false,
    "specialShape": false
  },
  {
    "name": "全家新莊新建明店",
    "address": "新北市新莊區後港一路４８號１樓",
    "zipCode": 242,
    "latitude": 25.026284,
    "longitude": 121.42607,
    "twoFlavors": true,
    "specialShape": false
  },
  {
    "name": "全家新莊金富店",
    "address": "新北市新莊區富國路１７６巷７號１樓",
    "zipCode": 242,
    "latitude": 25.024102,
    "longitude": 121.424269,
    "twoFlavors": false,
    "specialShape": false
  },
  {
    "name": "全家新莊裕民店",
    "address": "新北市新莊區裕民街９７號１樓",
    "zipCode": 242,
    "latitude": 25.023346,
    "longitude": 121.418386,
    "twoFlavors": false,
    "specialShape": false
  },
  {
    "name": "全家新莊民和店",
    "address": "新北市新莊區民安西路２４７號１樓",
    "zipCode": 242,
    "latitude": 25.01361,
    "longitude": 121.426088,
    "twoFlavors": false,
    "specialShape": false
  },
  {
    "name": "全家泰山麗池店",
    "address": "新北市泰山區泰林路二段５１８號",
    "zipCode": 243,
    "latitude": 25.063967,
    "longitude": 121.42414,
    "twoFlavors": false,
    "specialShape": false
  },
  {
    "name": "全家泰山憲訓店",
    "address": "新北市泰山區泰林路２段３６４號１樓",
    "zipCode": 243,
    "latitude": 25.063843,
    "longitude": 121.42865,
    "twoFlavors": false,
    "specialShape": false
  },
  {
    "name": "全家泰山福興店",
    "address": "新北市泰山區同興里福興一街６０號一樓",
    "zipCode": 243,
    "latitude": 25.05834,
    "longitude": 121.432583,
    "twoFlavors": false,
    "specialShape": false
  },
  {
    "name": "全家泰山辭修店",
    "address": "新北市泰山區明志路一段３７４號１樓",
    "zipCode": 243,
    "latitude": 25.057806,
    "longitude": 121.430663,
    "twoFlavors": true,
    "specialShape": false
  },
  {
    "name": "全家泰山新工專店",
    "address": "新北市泰山區明志路三段１４８號１樓",
    "zipCode": 243,
    "latitude": 25.039781,
    "longitude": 121.424609,
    "twoFlavors": false,
    "specialShape": false
  },
  {
    "name": "全家林口麗林店",
    "address": "新北市林口區中山路５２２號１樓",
    "zipCode": 244,
    "latitude": 25.083522,
    "longitude": 121.37866,
    "twoFlavors": false,
    "specialShape": false
  },
  {
    "name": "全家林口正新店",
    "address": "新北市林口區中正路５１號１樓",
    "zipCode": 244,
    "latitude": 25.077419,
    "longitude": 121.395494,
    "twoFlavors": false,
    "specialShape": false
  },
  {
    "name": "全家林口中菁店",
    "address": "新北巿林口區中正路２０１號１樓",
    "zipCode": 244,
    "latitude": 25.0774,
    "longitude": 121.391825,
    "twoFlavors": true,
    "specialShape": false
  },
  {
    "name": "全家林口新都店",
    "address": "新北市林口區文化三路一段５５７號．５５９號１樓",
    "zipCode": 244,
    "latitude": 25.076114,
    "longitude": 121.370031,
    "twoFlavors": true,
    "specialShape": false
  },
  {
    "name": "全家林口新創園店",
    "address": "新北市林口區仁愛路二段４９６號１樓",
    "zipCode": 244,
    "latitude": 25.075792,
    "longitude": 121.37633,
    "twoFlavors": true,
    "specialShape": false
  },
  {
    "name": "全家林口忠一店",
    "address": "新北市林口區忠孝一路２６號１樓",
    "zipCode": 244,
    "latitude": 25.073343165817434,
    "longitude": 121.36338534589386,
    "twoFlavors": false,
    "specialShape": false
  },
  {
    "name": "全家林口住都店",
    "address": "新北市林口區文化一路一段１６６－１號１樓",
    "zipCode": 244,
    "latitude": 25.073285,
    "longitude": 121.37736,
    "twoFlavors": true,
    "specialShape": false
  },
  {
    "name": "全家林口文園店",
    "address": "新北市林口區公園路１７８號１樓",
    "zipCode": 244,
    "latitude": 25.072828,
    "longitude": 121.372915,
    "twoFlavors": true,
    "specialShape": false
  },
  {
    "name": "全家林口國宅店",
    "address": "新北市林口區麗園一街４巷１號１之４",
    "zipCode": 244,
    "latitude": 25.071148,
    "longitude": 121.37616,
    "twoFlavors": false,
    "specialShape": false
  },
  {
    "name": "全家林口文化店",
    "address": "新北市林口區文化二路一段６８巷１號１樓",
    "zipCode": 244,
    "latitude": 25.068957,
    "longitude": 121.366055,
    "twoFlavors": false,
    "specialShape": false
  },
  {
    "name": "全家蘆洲名族店",
    "address": "新北市蘆洲區民族路２５１號１樓",
    "zipCode": 247,
    "latitude": 25.090259,
    "longitude": 121.476899,
    "twoFlavors": false,
    "specialShape": false
  },
  {
    "name": "全家蘆洲永樂店",
    "address": "新北市蘆洲區永樂街３８巷５７弄１號１Ｆ",
    "zipCode": 247,
    "latitude": 25.090073,
    "longitude": 121.458269,
    "twoFlavors": false,
    "specialShape": false
  },
  {
    "name": "全家蘆洲永成店",
    "address": "新北市蘆洲區成功里永樂街８３號一樓",
    "zipCode": 247,
    "latitude": 25.088734,
    "longitude": 121.455888,
    "twoFlavors": false,
    "specialShape": false
  },
  {
    "name": "全家蘆洲新虹展店",
    "address": "新北市蘆洲區民義街２２巷１８號",
    "zipCode": 247,
    "latitude": 25.088129,
    "longitude": 121.471654,
    "twoFlavors": false,
    "specialShape": false
  },
  {
    "name": "全家蘆洲復江店",
    "address": "新北市蘆洲區復興路１５０．１５２號一樓",
    "zipCode": 247,
    "latitude": 25.087752,
    "longitude": 121.477153,
    "twoFlavors": false,
    "specialShape": false
  },
  {
    "name": "全家蘆洲興賢店",
    "address": "新北市蘆洲區中興街６０號１樓",
    "zipCode": 247,
    "latitude": 25.08762,
    "longitude": 121.48196,
    "twoFlavors": false,
    "specialShape": false
  },
  {
    "name": "全家蘆洲玉清店",
    "address": "新北市蘆洲區民族路１７８號，１８０號一樓",
    "zipCode": 247,
    "latitude": 25.086752,
    "longitude": 121.479882,
    "twoFlavors": false,
    "specialShape": false
  },
  {
    "name": "全家蘆洲新鷺江店",
    "address": "新北市蘆洲區民權路３５號１樓",
    "zipCode": 247,
    "latitude": 25.086525,
    "longitude": 121.475797,
    "twoFlavors": false,
    "specialShape": false
  },
  {
    "name": "全家蘆洲正榮店",
    "address": "新北市蘆洲區長榮路２０９號１樓",
    "zipCode": 247,
    "latitude": 25.084877,
    "longitude": 121.460686,
    "twoFlavors": true,
    "specialShape": false
  },
  {
    "name": "全家蘆洲長興店",
    "address": "新北市蘆洲區長安街１６８號１樓",
    "zipCode": 247,
    "latitude": 25.083184,
    "longitude": 121.459253,
    "twoFlavors": false,
    "specialShape": false
  },
  {
    "name": "全家蘆洲恆德店",
    "address": "新北市蘆洲區三民路２６巷２２號，２４號",
    "zipCode": 247,
    "latitude": 25.082959,
    "longitude": 121.477457,
    "twoFlavors": false,
    "specialShape": false
  },
  {
    "name": "全家蘆洲光華店",
    "address": "新北市蘆洲區光華路１３２巷１號，１３４號１樓",
    "zipCode": 247,
    "latitude": 25.082578,
    "longitude": 121.466238,
    "twoFlavors": false,
    "specialShape": false
  },
  {
    "name": "全家蘆洲得勝店",
    "address": "新北市蘆洲區成功路９９號１樓",
    "zipCode": 247,
    "latitude": 25.081537,
    "longitude": 121.47281,
    "twoFlavors": true,
    "specialShape": false
  },
  {
    "name": "全家蘆洲安宅店",
    "address": "新北市蘆洲區長安街７１號１樓",
    "zipCode": 247,
    "latitude": 25.07995466,
    "longitude": 121.46264652,
    "twoFlavors": true,
    "specialShape": false
  },
  {
    "name": "全家五股新凌雲店",
    "address": "新北市五股區凌雲路一段７９號一樓",
    "zipCode": 248,
    "latitude": 25.10121,
    "longitude": 121.450866,
    "twoFlavors": false,
    "specialShape": false
  },
  {
    "name": "全家五股金雲店",
    "address": "新北市五股區西雲路２０８號１樓",
    "zipCode": 248,
    "latitude": 25.095661,
    "longitude": 121.44795,
    "twoFlavors": true,
    "specialShape": false
  },