[
  {
    "name": "千成",
    "address": "台北市中正區林森南路4號之3",
    "latitude": 25.043751,
    "longitude": 121.522903,
    "time": "24H"
  },
  {
    "name": "千翔",
    "address": "台北市中正區許昌街17號1樓",
    "latitude": 25.045748,
    "longitude": 121.516971,
    "time": "24H"
  },
  {
    "name": "中正牯嶺",
    "address": "台北市中正區牯嶺街138號1樓",
    "latitude": 25.022321,
    "longitude": 121.518952,
    "time": "24H"
  },
  {
    "name": "中華電",
    "address": "台北市中正區信義路一段21-3號B1樓",
    "latitude": 25.036515,
    "longitude": 121.523275,
    "time": "07:00 ~ 19:00"
  },
  {
    "name": "北車",
    "address": "台北市中正區忠孝西路一段49號地下1樓(13號14號15號販賣店)",
    "latitude": 25.046084,
    "longitude": 121.516829,
    "time": "06:00 ~ 23:00"
  },
  {
    "name": "北捷",
    "address": "台北市中正區忠孝西路一段49號B3樓",
    "latitude": 25.0472,
    "longitude": 121.517672,
    "time": "06:30 ~ 23:00"
  },
  {
    "name": "古亭",
    "address": "台北市中正區汀州路二段210號",
    "latitude": 25.022488,
    "longitude": 121.52366,
    "time": "24H"
  },
  {
    "name": "台大",
    "address": "台北市中正區林森南路53號55號",
    "latitude": 25.040172,
    "longitude": 121.52213,
    "time": "24H"
  },
  {
    "name": "台北地下街",
    "address": "台北市中正區市民大道一段100號台北地下街12號廣Y3出口",
    "latitude": 25.048859,
    "longitude": 121.517644,
    "time": "07:00 ~ 23:00"
  },
  {
    "name": "西門站",
    "address": "台北市中正區寶慶路32之1號地下一樓(捷運西門站)",
    "latitude": 25.04186,
    "longitude": 121.50873,
    "time": "06:00 ~ 23:00"
  },
  {
    "name": "東成",
    "address": "台北市中正區延平南路129巷3號1樓",
    "latitude": 25.037951,
    "longitude": 121.509874,
    "time": "07:00 ~ 21:00"
  },
  {
    "name": "欣漢華",
    "address": "台北市中正區中華路一段41號1樓",
    "latitude": 25.044943,
    "longitude": 121.509514,
    "time": "24H"
  },
  {
    "name": "青島",
    "address": "台北市中正區青島東路4號",
    "latitude": 25.043946,
    "longitude": 121.521392,
    "time": "06:00 ~ 22:59"
  },
  {
    "name": "牯嶺",
    "address": "台北市中正區廈門街99巷19-2號1樓",
    "latitude": 25.02397,
    "longitude": 121.518814,
    "time": "24H"
  },
  {
    "name": "軍總",
    "address": "台北市中正區汀州路三段129號",
    "latitude": 25.016335,
    "longitude": 121.530801,
    "time": "07:00 ~ 23:59"
  },
  {
    "name": "重南",
    "address": "台北市中正區武昌街一段1-2號1樓",
    "latitude": 25.044167,
    "longitude": 121.513528,
    "time": "06:00 ~ 01:00"
  },
  {
    "name": "國圖",
    "address": "台北市中正區中山南路20號B1樓",
    "latitude": 25.037241,
    "longitude": 121.516883,
    "time": "08:00 ~ 22:00"
  },
  {
    "name": "紹興",
    "address": "台北市中正區紹興北街37號1樓",
    "latitude": 25.045552,
    "longitude": 121.525559,
    "time": "24H"
  },
  {
    "name": "博源",
    "address": "台北市中正區思源街16號",
    "latitude": 25.014415,
    "longitude": 121.531095,
    "time": "24H"
  },
  {
    "name": "森光",
    "address": "台北市中正區忠孝西路一段47號B1(櫃號KB111)",
    "latitude": 25.046917,
    "longitude": 121.516911,
    "time": "07:00 ~ 22:00"
  },
  {
    "name": "華山",
    "address": "台北市中正區忠孝東路一段138號",
    "latitude": 25.044106,
    "longitude": 121.525618,
    "time": "24H"
  },
  {
    "name": "開博",
    "address": "台北市中正區開封街一段40號42號1樓",
    "latitude": 25.045985,
    "longitude": 121.512264,
    "time": "24H"
  },
  {
    "name": "微風1",
    "address": "台北市中正區北平西路3號1樓",
    "latitude": 25.047924,
    "longitude": 121.517081,
    "time": "05:00 ~ 22:00"
  },
  {
    "name": "新格蘭",
    "address": "台北市中正區衡陽路27號",
    "latitude": 25.042408,
    "longitude": 121.512786,
    "time": "07:00 ~ 23:00"
  },
  {
    "name": "漢慶",
    "address": "台北市中正區漢口街一段82號1樓",
    "latitude": 25.045166,
    "longitude": 121.512207,
    "time": "06:00 ~ 22:59"
  },
  {
    "name": "臺醫東",
    "address": "台北市中正區中山南路7號1樓",
    "latitude": 25.04078,
    "longitude": 121.518833,
    "time": "24H"
  },
  {
    "name": "臺醫站",
    "address": "台北市中正區公園路52號",
    "latitude": 25.040939,
    "longitude": 121.515763,
    "time": "06:00 ~ 23:00"
  },
  {
    "name": "慶陽",
    "address": "台北市中正區衡陽路93號1樓",
    "latitude": 25.042315,
    "longitude": 121.509553,
    "time": "24H"
  },
  {
    "name": "臨沂",
    "address": "台北市中正區文祥里臨沂街74號76號",
    "latitude": 25.034531,
    "longitude": 121.527801,
    "time": "24H"
  },
  {
    "name": "羅亭",
    "address": "台北市中正區羅斯福路二段68號",
    "latitude": 25.027316,
    "longitude": 121.521933,
    "time": "24H"
  },
  {
    "name": "鑫公信",
    "address": "台北市中正區信陽街9號11號1樓",
    "latitude": 25.044699,
    "longitude": 121.51661,
    "time": "06:00 ~ 00:59"
  },
  {
    "name": "鑫衡陽",
    "address": "台北市中正區衡陽路6號1樓",
    "latitude": 25.042294,
    "longitude": 121.513777,
    "time": "24H"
  },
  {
    "name": "鑫館",
    "address": "台北市中正區汀州路三段180號",
    "latitude": 25.013028,
    "longitude": 121.534806,
    "time": "24H"
  },
  {
    "name": "中興醫",
    "address": "台北市大同區鄭州路145號B1",
    "latitude": 25.050911,
    "longitude": 121.50919,
    "time": "06:00 ~ 23:59"
  },
  {
    "name": "京站",
    "address": "台北市大同區華陰街91號",
    "latitude": 25.049806,
    "longitude": 121.517557,
    "time": "24H"
  },
  {
    "name": "延平北",
    "address": "台北市大同區延平北路一段110號112號116號1樓",
    "latitude": 25.05285,
    "longitude": 121.511723,
    "time": "24H"
  },
  {
    "name": "圓山站",
    "address": "台北市大同區酒泉街9之1號1樓",
    "latitude": 25.071353,
    "longitude": 121.520118,
    "time": "07:00 ~ 23:00"
  },
  {
    "name": "鑫寧",
    "address": "台北市大同區民生西路214號216號1樓",
    "latitude": 25.056876,
    "longitude": 121.514995,
    "time": "06:00 ~ 23:59"
  },
  {
    "name": "大永",
    "address": "台北市中山區明水路581巷15號1樓",
    "latitude": 25.080221,
    "longitude": 121.55093,
    "time": "24H"
  },
  {
    "name": "吉添",
    "address": "台北市中山區吉林路296號1樓新生北路二段137巷67號1樓",
    "latitude": 25.061305,
    "longitude": 121.530171,
    "time": "06:00 ~ 23:59"
  },
  {
    "name": "朱崙",
    "address": "台北市中山區復興北路56號58號1樓",
    "latitude": 25.050044,
    "longitude": 121.543772,
    "time": "24H"
  },
  {
    "name": "江陵",
    "address": "台北市中山區一江街23號1樓",
    "latitude": 25.053126,
    "longitude": 121.531595,
    "time": "06:00 ~ 23:59"
  },
  {
    "name": "明水",
    "address": "台北市中山區明水路636號樂群三路1號",
    "latitude": 25.082822,
    "longitude": 121.551324,
    "time": "24H"
  },
  {
    "name": "松京",
    "address": "台北市中山區南京東路二段144號1樓",
    "latitude": 25.051835,
    "longitude": 121.533969,
    "time": "06:00 ~ 23:59"
  },
  {
    "name": "松盛",
    "address": "台北市中山區南京東路二段115巷1號",
    "latitude": 25.052614,
    "longitude": 121.53364,
    "time": "06:00 ~ 23:59"
  },
  {
    "name": "松運",
    "address": "台北市中山區松江路101號",
    "latitude": 25.051235,
    "longitude": 121.533228,
    "time": "24H"
  },
  {
    "name": "松錦",
    "address": "台北市中山區松江路277號、277-1號1樓",
    "latitude": 25.060068,
    "longitude": 121.533463,
    "time": "24H"
  },
  {
    "name": "欣旺",
    "address": "台北市中山區北安路602之1號1樓604號1樓606號1樓",
    "latitude": 25.081943,
    "longitude": 121.548924,
    "time": "24H"
  },
  {
    "name": "直安",
    "address": "台北市中山區北安路649號",
    "latitude": 25.084047,
    "longitude": 121.54919,
    "time": "06:00 ~ 23:59"
  },
  {
    "name": "金宴",
    "address": "台北市中山區建國北路二段151巷8號1樓",
    "latitude": 25.06181,
    "longitude": 121.53809,
    "time": "06:00 ~ 23:59"
  },
  {
    "name": "長北",
    "address": "台北市中山區長春路11號",
    "latitude": 25.055064,
    "longitude": 121.523677,
    "time": "24H"
  },
  {
    "name": "長松",
    "address": "台北市中山區松江路65號",
    "latitude": 25.048989,
    "longitude": 121.53315,
    "time": "06:00 ~ 23:59"
  },
  {
    "name": "長城",
    "address": "台北市中山區中山北路二段56號1樓",
    "latitude": 25.056417,
    "longitude": 121.522566,
    "time": "06:00 ~ 22:59"
  },
  {
    "name": "長通",
    "address": "台北市中山區長安東路二段101號",
    "latitude": 25.048533,
    "longitude": 121.535112,
    "time": "24H"
  },
  {
    "name": "建龍",
    "address": "台北市中山區龍江路239號1樓",
    "latitude": 25.058208,
    "longitude": 121.540944,
    "time": "06:00 ~ 23:59"
  },
  {
    "name": "建權",
    "address": "台北市中山區民權東路二段206號1樓",
    "latitude": 25.062202,
    "longitude": 121.536518,
    "time": "06:00 ~ 23:59"
  },
  {
    "name": "春城",
    "address": "台北市中山區長春路135號135之1號1樓",
    "latitude": 25.054931,
    "longitude": 121.531351,
    "time": "24H"
  },
  {
    "name": "基河",
    "address": "台北市中山區樂群二路206號1樓",
    "latitude": 25.079744,
    "longitude": 121.559239,
    "time": "24H"
  },
  {
    "name": "統佳",
    "address": "台北市中山區松江路237號1樓",
    "latitude": 25.058983,
    "longitude": 121.533454,
    "time": "06:00 ~ 23:59"
  },
  {
    "name": "復錦",
    "address": "台北市中山區復興北路348號1樓",
    "latitude": 25.059978,
    "longitude": 121.543944,
    "time": "24H"
  },
  {
    "name": "晶鑽",
    "address": "台北市中山區中山北路二段39巷8號1樓",
    "latitude": 25.053931,
    "longitude": 121.523512,
    "time": "24H"
  },
  {
    "name": "森泰",
    "address": "台北市中山區林森北路358號360號",
    "latitude": 25.057276,
    "longitude": 121.525386,
    "time": "24H"
  },
  {
    "name": "翔運",
    "address": "台北市中山區中山北路二段44巷2號1樓",
    "latitude": 25.055007,
    "longitude": 121.522428,
    "time": "07:30 ~ 22:00"
  },
  {
    "name": "萬濠",
    "address": "台北市中山區敬業四路1號1樓",
    "latitude": 25.08031,
    "longitude": 121.558379,
    "time": "24H"
  },
  {
    "name": "實踐大學",
    "address": "台北市中山區大直街70號1樓",
    "latitude": 25.083755,
    "longitude": 121.546189,
    "time": "07:00 ~ 23:00"
  },
  {
    "name": "榮鑫",
    "address": "台北市中山區建國北路三段89號91號1樓",
    "latitude": 25.065641,
    "longitude": 121.536719,
    "time": "24H"
  },
  {
    "name": "福權",
    "address": "台北市中山區民權東路二段96號98號1樓",
    "latitude": 25.06242,
    "longitude": 121.531884,
    "time": "06:00 ~ 23:59"
  },
  {
    "name": "樂明",
    "address": "台北市中山區敬業一路56號",
    "latitude": 25.081624,
    "longitude": 121.552795,
    "time": "24H"
  },
  {
    "name": "興亞",
    "address": "台北市中山區松江路26巷32號34號",
    "latitude": 25.047022,
    "longitude": 121.531576,
    "time": "06:00 ~ 23:59"
  },
  {
    "name": "薇美",
    "address": "台北市中山區敬業三路11號1樓",
    "latitude": 25.083639,
    "longitude": 121.555941,
    "time": "24H"
  },
  {
    "name": "鑫安江",
    "address": "台北市中山區長安東路二段178號178-1號1樓",
    "latitude": 25.048193,
    "longitude": 121.540528,
    "time": "24H"
  },
  {
    "name": "鑫錦州",
    "address": "台北市中山區錦州街263號",
    "latitude": 25.060377,
    "longitude": 121.534911,
    "time": "24H"
  },
  {
    "name": "上弘",
    "address": "台北市松山區敦化北路168號B2",
    "latitude": 25.05639,
    "longitude": 121.548287,
    "time": "07:00 ~ 21:00"
  },
  {
    "name": "北體",
    "address": "台北市松山區北寧路66號",
    "latitude": 25.050888,
    "longitude": 121.55285,
    "time": "06:00 ~ 22:59"
  },
  {
    "name": "台場",
    "address": "台北市松山區八德路三段20-2號",
    "latitude": 25.048086,
    "longitude": 121.551158,
    "time": "24H"
  },
  {
    "name": "市大",
    "address": "台北市松山區市民大道四段105號",
    "latitude": 25.0452,
    "longitude": 121.548029,
    "time": "06:00 ~ 23:59"
  },
  {
    "name": "民復",
    "address": "台北市松山區民生東路五段10號1樓",
    "latitude": 25.058164,
    "longitude": 121.555867,
    "time": "06:00 ~ 23:59"
  },
  {
    "name": "吉祥",
    "address": "台北市松山區八德路四段245巷52弄31號",
    "latitude": 25.050398,
    "longitude": 121.562671,
    "time": "06:00 ~ 23:59"
  },
  {
    "name": "京發",
    "address": "台北市松山區南京東路五段139之4及139之8號",
    "latitude": 25.051768,
    "longitude": 121.561618,
    "time": "06:00 ~ 23:59"
  },
  {
    "name": "京運",
    "address": "台北市松山區南京東路三段262號1樓",
    "latitude": 25.051628,
    "longitude": 121.544998,
    "time": "24H"
  },
  {
    "name": "庚塑",
    "address": "台北市松山區敦化北路199巷2弄9號",
    "latitude": 25.055449,
    "longitude": 121.550038,
    "time": "06:00 ~ 23:00"
  },
  {
    "name": "東鑫",
    "address": "台北市松山區民生東路四段55巷10號",
    "latitude": 25.058359,
    "longitude": 121.550472,
    "time": "06:00 ~ 23:00"
  },
  {
    "name": "松民",
    "address": "台北市松山區三民路10號",
    "latitude": 25.052392,
    "longitude": 121.56388,
    "time": "24H"
  },
  {
    "name": "松航",
    "address": "台北市松山區敦化北路340-9號",
    "latitude": 25.063718,
    "longitude": 121.551514,
    "time": "06:00 ~ 22:00"
  },
  {
    "name": "松機",
    "address": "台北市松山區敦化北路340之10號1樓",
    "latitude": 25.063818,
    "longitude": 121.549644,
    "time": "05:30 ~ 22:00"
  },
  {
    "name": "松鑽",
    "address": "台北市松山區八德路四段686號",
    "latitude": 25.049883,
    "longitude": 121.576641,
    "time": "24H"
  },
  {
    "name": "威京",
    "address": "台北市松山區八德路四段147號",
    "latitude": 25.048778,
    "longitude": 121.562435,
    "time": "06:00 ~ 01:00"
  },
  {
    "name": "風復",
    "address": "台北市松山區復興南路一段43號1樓",
    "latitude": 25.045677,
    "longitude": 121.544165,
    "time": "24H"
  },
  {
    "name": "富景",
    "address": "台北市松山區三民路137號1樓",
    "latitude": 25.0603,
    "longitude": 121.563111,
    "time": "06:00 ~ 23:59"
  },
  {
    "name": "復吉",
    "address": "台北市松山區南京東路三段275號1樓",
    "latitude": 25.052006,
    "longitude": 121.545531,
    "time": "06:00 ~ 23:59"
  },
  {
    "name": "復春",
    "address": "台北市松山區復興北路179號",
    "latitude": 25.054422,
    "longitude": 121.544337,
    "time": "24H"
  },
  {
    "name": "復星",
    "address": "台北市松山區復興北路15-6號1樓",
    "latitude": 25.048468,
    "longitude": 121.544235,
    "time": "24H"
  },
  {
    "name": "復惠",
    "address": "台北市松山區復興北路335號1樓",
    "latitude": 25.059896,
    "longitude": 121.544487,
    "time": "06:00 ~ 23:59"
  },
  {
    "name": "敦北",
    "address": "台北市松山區敦化北路149號1樓",
    "latitude": 25.054074,
    "longitude": 121.549585,
    "time": "24H"
  },
  {
    "name": "敦巨",
    "address": "台北市松山區南京東路四段25號25之1號",
    "latitude": 25.05196,
    "longitude": 121.550597,
    "time": "24H"
  },
  {
    "name": "錢京",
    "address": "台北市松山區敦化北路100號1樓",
    "latitude": 25.052738,
    "longitude": 121.548322,
    "time": "24H"
  },
  {
    "name": "大台",
    "address": "台北市大安區羅斯福路三段333巷18號1樓20號1樓(部分)",
    "latitude": 25.017604,
    "longitude": 121.532554,
    "time": "06:00 ~ 23:59"
  },
  {
    "name": "大安臥龍",
    "address": "台北市大安區臥龍街291-2號.291-3號",
    "latitude": 25.017274,
    "longitude": 121.558348,
    "time": "07:00 ~ 23:00"
  },
  {
    "name": "大信",
    "address": "台北市大安區信義路三段33號",
    "latitude": 25.033718,
    "longitude": 121.534563,
    "time": "24H"
  },
  {
    "name": "大敦",
    "address": "台北市大安區敦化南路二段63巷7號1樓",
    "latitude": 25.031191,
    "longitude": 121.549556,
    "time": "07:00 ~ 23:00"
  },
  {
    "name": "台科一",
    "address": "台北市大安區基隆路四段43號1樓",
    "latitude": 25.013953,
    "longitude": 121.542764,
    "time": "07:00 ~ 23:00"
  },
  {
    "name": "禾光",
    "address": "台北市大安區和平東路二段63號1樓",
    "latitude": 25.02565,
    "longitude": 121.538616,
    "time": "07:00 ~ 23:59"
  },
  {
    "name": "光忠",
    "address": "台北市大安區復興南路一段107巷5弄1號1樓",
    "latitude": 25.043722,
    "longitude": 121.54443,
    "time": "06:00 ~ 23:59"
  },
  {
    "name": "合維",
    "address": "台北市大安區四維路170巷8號1樓",
    "latitude": 25.028195,
    "longitude": 121.547625,
    "time": "24H"
  },
  {
    "name": "安松",
    "address": "台北市大安區安東街50之2號50之3號50之4號",
    "latitude": 25.042924,
    "longitude": 121.542452,
    "time": "24H"
  },
  {
    "name": "至善",
    "address": "台北市大安區復興南路二段377號1樓",
    "latitude": 25.022326,
    "longitude": 121.543543,
    "time": "06:00 ~ 23:00"
  },
  {
    "name": "技安",
    "address": "台北市大安區和平東路三段97號97之1號1樓",
    "latitude": 25.024613,
    "longitude": 121.550779,
    "time": "24H"
  },
  {
    "name": "辛亥",
    "address": "台北市大安區辛亥路二段57號",
    "latitude": 25.023057,
    "longitude": 121.537167,
    "time": "07:00 ~ 23:00"
  },
  {
    "name": "卓聯",
    "address": "台北市大安區羅斯福路四段1號1樓卓聯大樓",
    "latitude": 25.014683,
    "longitude": 121.537918,
    "time": "07:00 ~ 17:00"
  },
  {
    "name": "和平東",
    "address": "台北市大安區和平東路一段129之1號",
    "latitude": 25.026717,
    "longitude": 121.529414,
    "time": "06:30 ~ 23:00"
  },
  {
    "name": "和金",
    "address": "台北市大安區和平東路一段91號",
    "latitude": 25.026918,
    "longitude": 121.525706,
    "time": "24H"
  },
  {
    "name": "和樂",
    "address": "台北市大安區和平東路三段228巷45號1樓",
    "latitude": 25.02064,
    "longitude": 121.553285,
    "time": "06:00 ~ 23:59"
  },
  {
    "name": "欣安和",
    "address": "台北市大安區安和路一段47號",
    "latitude": 25.038687,
    "longitude": 121.551057,
    "time": "06:00 ~ 23:59"
  },
  {
    "name": "欣隆昌",
    "address": "台北市大安區基隆路二段142之1號及142之2號",
    "latitude": 25.028386,
    "longitude": 121.556496,
    "time": "24H"
  },
  {
    "name": "空指部",
    "address": "台北市大安區羅斯福路四段113巷29號(空軍指揮作戰部)",
    "latitude": 25.011144,
    "longitude": 121.540798,
    "time": "07:00 ~ 21:00"
  },
  {
    "name": "金信",
    "address": "台北市大安區金山南路二段18號1樓",
    "latitude": 25.033281,
    "longitude": 121.52694,
    "time": "24H"
  },
  {
    "name": "長星",
    "address": "台北市大安區基隆路三段85號",
    "latitude": 25.01781,
    "longitude": 121.54534,
    "time": "24H"
  },
  {
    "name": "阿波羅",
    "address": "台北市大安區忠孝東路四段222號224號1樓",
    "latitude": 25.041212,
    "longitude": 121.553588,
    "time": "24H"
  },
  {
    "name": "青田",
    "address": "台北市大安區和平東路一段141巷15.17號1樓",
    "latitude": 25.028012,
    "longitude": 121.530626,
    "time": "24H"
  },
  {
    "name": "信仁",
    "address": "台北市大安區仁愛路三段143巷8號",
    "latitude": 25.038883,
    "longitude": 121.542919,
    "time": "24H"
  },
  {
    "name": "建安",
    "address": "台北市大安區敦化南路一段187巷29號",
    "latitude": 25.042638,
    "longitude": 121.550671,
    "time": "24H"
  },
  {
    "name": "建忠",
    "address": "台北市大安區忠孝東路三段251巷2弄1號",
    "latitude": 25.042124,
    "longitude": 121.541513,
    "time": "07:00 ~ 23:59"
  },
  {
    "name": "建南",
    "address": "台北市大安區建國南路二段151巷6之8號",
    "latitude": 25.028706,
    "longitude": 121.5384,
    "time": "24H"
  },
  {
    "name": "統家",
    "address": "台北市大安區忠孝東路四段216巷27弄1號1樓",
    "latitude": 25.039938,
    "longitude": 121.553361,
    "time": "06:00 ~ 23:59"
  },
  {
    "name": "統領",
    "address": "台北市大安區忠孝東路四段223巷9號1樓",
    "latitude": 25.042214,
    "longitude": 121.552871,
    "time": "24H"
  },
  {
    "name": "頂好",
    "address": "台北市大安區仁愛路四段79號1號",
    "latitude": 25.038255,
    "longitude": 121.547229,
    "time": "24H"
  },
  {
    "name": "富陽",
    "address": "台北市大安區和平東路三段298號300號1樓",
    "latitude": 25.020682,
    "longitude": 121.556246,
    "time": "06:00 ~ 23:59"
  },
  {
    "name": "復昌",
    "address": "台北市大安區通化里光復南路616號",
    "latitude": 25.032264,
    "longitude": 121.557335,
    "time": "24H"
  },
  {
    "name": "敦仁",
    "address": "台北市大安區忠孝東路四段148號部份",
    "latitude": 25.041252,
    "longitude": 121.549792,
    "time": "24H"
  },
  {
    "name": "敦禾",
    "address": "台北市大安區敦化南路二段265巷6號1樓",
    "latitude": 25.025447,
    "longitude": 121.549574,
    "time": "06:00 ~ 23:59"
  },
  {
    "name": "敦安",
    "address": "台北市大安區安和路一段86號",
    "latitude": 25.0347,
    "longitude": 121.552397,
    "time": "24H"
  },
  {
    "name": "敦信",
    "address": "台北市大安區仁愛路四段122巷50號1樓",
    "latitude": 25.034565,
    "longitude": 121.550178,
    "time": "24H"
  },
  {
    "name": "敦南",
    "address": "台北市大安區大安路一段83巷14號1樓",
    "latitude": 25.040876,
    "longitude": 121.547076,
    "time": "24H"
  },
  {
    "name": "敦頂",
    "address": "台北市大安區敦化南路一段190巷10號1樓",
    "latitude": 25.042508,
    "longitude": 121.547953,
    "time": "24H"
  },
  {
    "name": "敦維",
    "address": "台北市大安區東豐街43號45號1樓",
    "latitude": 25.036237,
    "longitude": 121.546674,
    "time": "24H"
  },
  {
    "name": "圓金",
    "address": "台北市大安區仁愛路四段112巷7號7號之1",
    "latitude": 25.036915,
    "longitude": 121.549712,
    "time": "24H"
  },
  {
    "name": "愛國",
    "address": "台北市大安區愛國東路75號",
    "latitude": 25.031752,
    "longitude": 121.527296,
    "time": "24H"
  },
  {
    "name": "新北科",
    "address": "台北市大安區新生南路一段3號B1樓",
    "latitude": 25.043441,
    "longitude": 121.535602,
    "time": "07:00 ~ 23:00"
  },
  {
    "name": "新東帝",
    "address": "台北市大安區敦化南路二段99號1樓",
    "latitude": 25.028694,
    "longitude": 121.549751,
    "time": "07:00 ~ 22:00"
  },
  {
    "name": "新國聯",
    "address": "台北市大安區光復南路180巷12號",
    "latitude": 25.042381,
    "longitude": 121.556961,
    "time": "24H"
  },
  {
    "name": "誠安",
    "address": "台北市大安區敦化南路一段247巷12號1樓",
    "latitude": 25.038776,
    "longitude": 121.550039,
    "time": "06:00 ~ 23:59"
  },
  {
    "name": "鳳翔",
    "address": "台北市大安區忠孝東路四段216巷68號",
    "latitude": 25.038084,
    "longitude": 121.552885,
    "time": "06:00 ~ 23:59"
  },
  {
    "name": "樂隆",
    "address": "台北市大安區敦化南路二段331巷14號",
    "latitude": 25.022687,
    "longitude": 121.549609,
    "time": "07:00 ~ 23:00"
  },
  {
    "name": "靜安",
    "address": "台北市大安區光復南路262號",
    "latitude": 25.040194,
    "longitude": 121.557558,
    "time": "24H"
  },
  {
    "name": "濟南",
    "address": "台北市大安區濟南路三段12號1樓",
    "latitude": 25.040157,
    "longitude": 121.533873,
    "time": "24H"
  },
  {
    "name": "豐安",
    "address": "台北市大安區東豐街9號",
    "latitude": 25.036114,
    "longitude": 121.544267,
    "time": "24H"
  },
  {
    "name": "麟光",
    "address": "台北市大安區臥龍街252號及252之1號",
    "latitude": 25.018364,
    "longitude": 121.557008,
    "time": "24H"
  },
  {
    "name": "鑫忠孝",
    "address": "台北市大安區忠孝東路四段313號1樓",
    "latitude": 25.041614,
    "longitude": 121.555898,
    "time": "24H"
  },
  {
    "name": "鑫通",
    "address": "台北市大安區信義路四段294巷7號1樓",
    "latitude": 25.032581,
    "longitude": 121.554419,
    "time": "24H"
  },
  {
    "name": "新起",
    "address": "台北市萬華區長沙街二段87號1樓",
    "latitude": 25.040659,
    "longitude": 121.504879,
    "time": "24H"
  },
  {
    "name": "萬和",
    "address": "台北市萬華區萬大路182號184號",
    "latitude": 25.027924,
    "longitude": 121.500346,
    "time": "07:00 ~ 23:59"
  },
  {
    "name": "萬東",
    "address": "台北市萬華區萬大路486巷61號63號65號1樓",
    "latitude": 25.020479,
    "longitude": 121.495781,
    "time": "24H"
  },
  {
    "name": "萬武",
    "address": "台北市萬華區萬大路486巷5.7號1樓",
    "latitude": 25.019794,
    "longitude": 121.496992,
    "time": "24H"
  },
  {
    "name": "龍山",
    "address": "台北市萬華區康定路203號205號1樓",
    "latitude": 25.03611,
    "longitude": 121.501514,
    "time": "06:00 ~ 23:59"
  },
  {
    "name": "環康",
    "address": "台北市萬華區環河南路一段35號1樓",
    "latitude": 25.046241,
    "longitude": 121.503519,
    "time": "06:00 ~ 23:59"
  },
  {
    "name": "鑫日新",
    "address": "台北市萬華區武昌街二段122之1號",
    "latitude": 25.045307,
    "longitude": 121.503979,
    "time": "24H"
  },
  {
    "name": "鑫寶",
    "address": "台北市萬華區寶興街 43號45號1樓",
    "latitude": 25.027372,
    "longitude": 121.49347,
    "time": "24H"
  },
  {
    "name": "一零一",
    "address": "台北市信義區信義路五段7號35樓",
    "latitude": 25.033373,
    "longitude": 121.565077,
    "time": "07:30 ~ 20:30"
  },
  {
    "name": "仁信",
    "address": "台北市信義區松仁路130號",
    "latitude": 25.033642,
    "longitude": 121.568002,
    "time": "06:00 ~ 23:59"
  },
  {
    "name": "世貿",
    "address": "台北市信義區信義路五段5號1樓",
    "latitude": 25.033867,
    "longitude": 121.562325,
    "time": "07:30 ~ 20:00"
  },
  {
    "name": "世貿二",
    "address": "台北市信義區信義路五段5號2樓",
    "latitude": 25.033867,
    "longitude": 121.562325,
    "time": "07:30 ~ 19:00"
  },
  {
    "name": "北府",
    "address": "台北市信義區松仁路162號164號1樓",
    "latitude": 25.028461,
    "longitude": 121.568193,
    "time": "06:00 ~ 01:00"
  },
  {
    "name": "北醫",
    "address": "台北市信義區吳興街252號",
    "latitude": 25.027177,
    "longitude": 121.563533,
    "time": "07:00 ~ 23:00"
  },
  {
    "name": "巨東",
    "address": "台北市信義區忠孝東路四段553巷6弄2號1樓",
    "latitude": 25.042224,
    "longitude": 121.562826,
    "time": "24H"
  },
  {
    "name": "巨蛋",
    "address": "台北市信義區忠孝東路四段500之2號",
    "latitude": 25.040901,
    "longitude": 121.561699,
    "time": "06:00 ~ 23:59"
  },
  {
    "name": "市運",
    "address": "台北市信義區忠孝東路五段2號B1樓",
    "latitude": 25.041249,
    "longitude": 121.567124,
    "time": "06:00 ~ 23:59"
  },
  {
    "name": "永吉",
    "address": "台北市信義區永吉路217號1樓2樓及219號1樓",
    "latitude": 25.045709,
    "longitude": 121.573994,
    "time": "24H"
  },
  {
    "name": "宏泰",
    "address": "台北市信義區松仁路91-1號1樓",
    "latitude": 25.036845,
    "longitude": 121.568655,
    "time": "24H"
  },
  {
    "name": "昌隆",
    "address": "台北市信義區基隆路二段131-4號",
    "latitude": 25.028011,
    "longitude": 121.55673,
    "time": "24H"
  },
  {
    "name": "松山",
    "address": "台北市信義區忠孝東路五段386號",
    "latitude": 25.040764,
    "longitude": 121.574124,
    "time": "24H"
  },
  {
    "name": "松茂",
    "address": "台北市信義區松山路11號(地下一層商業空間C2號)",
    "latitude": 25.04942,
    "longitude": 121.577992,
    "time": "06:00 ~ 23:59"
  },
  {
    "name": "松高",
    "address": "台北市信義區基隆路一段141號1樓",
    "latitude": 25.043212,
    "longitude": 121.565843,
    "time": "24H"
  },
  {
    "name": "松捷",
    "address": "台北市信義區忠孝東路五段1之6號",
    "latitude": 25.041321,
    "longitude": 121.565135,
    "time": "24H"
  },
  {
    "name": "松義",
    "address": "台北市信義區松德路271號",
    "latitude": 25.032912,
    "longitude": 121.574648,
    "time": "24H"
  },
  {
    "name": "武松",
    "address": "台北市信義區松山路121號1樓",
    "latitude": 25.047389,
    "longitude": 121.577955,
    "time": "24H"
  },
  {
    "name": "信義湧高",
    "address": "台北市信義區松高路77號地下1樓",
    "latitude": 25.039592,
    "longitude": 121.570366,
    "time": "07:00 ~ 21:00"
  },
  {
    "name": "信義新光",
    "address": "台北市信義區松高路12號B1",
    "latitude": 25.038664,
    "longitude": 121.566793,
    "time": "11:00 ~ 21:30"
  },
  {
    "name": "信福",
    "address": "台北市信義區福德街308號310巷1號",
    "latitude": 25.039333,
    "longitude": 121.587454,
    "time": "06:00 ~ 23:59"
  },
  {
    "name": "信遠",
    "address": "台北市信義區松仁路58號B2樓",
    "latitude": 25.036732,
    "longitude": 121.567968,
    "time": "11:00 ~ 22:00"
  },
  {
    "name": "信德",
    "address": "台北市信義區松德路200巷10號",
    "latitude": 25.034775,
    "longitude": 121.573592,
    "time": "24H"
  },
  {
    "name": "後山埤",
    "address": "台北市信義區中坡北路11號1樓",
    "latitude": 25.044634,
    "longitude": 121.581014,
    "time": "24H"
  },
  {
    "name": "國貿",
    "address": "台北市信義區基隆路一段333號B3",
    "latitude": 25.034597,
    "longitude": 121.560995,
    "time": "07:00 ~ 19:00"
  },
  {
    "name": "捷忠",
    "address": "台北市信義區忠孝東路五段617號",
    "latitude": 25.04161,
    "longitude": 121.579105,
    "time": "24H"
  },
  {
    "name": "莊敬路",
    "address": "台北市信義區莊敬路390號",
    "latitude": 25.027359,
    "longitude": 121.565463,
    "time": "24H"
  },
  {
    "name": "凱悅",
    "address": "台北市信義區基隆路一段398號1樓",
    "latitude": 25.034285,
    "longitude": 121.560031,
    "time": "24H"
  },
  {
    "name": "惠安",
    "address": "台北市信義區惠安里吳興街520號1樓",
    "latitude": 25.022118,
    "longitude": 121.568867,
    "time": "24H"
  },
  {
    "name": "貿捷",
    "address": "台北市信義區信義路五段20號B1樓",
    "latitude": 25.032678,
    "longitude": 121.563651,
    "time": "07:00 ~ 23:00"
  },
  {
    "name": "開源",
    "address": "台北市信義區松山路136號138號",
    "latitude": 25.04727,
    "longitude": 121.577578,
    "time": "24H"
  },
  {
    "name": "勤醫",
    "address": "台北市信義區吳興街220巷33號",
    "latitude": 25.027229,
    "longitude": 121.562267,
    "time": "06:00 ~ 23:59"
  },
  {
    "name": "微風南山",
    "address": "台北市信義區松智路17號B2樓",
    "latitude": 25.034435,
    "longitude": 121.565774,
    "time": "10:00 ~ 22:00"
  },
  {
    "name": "新三連",
    "address": "台北市信義區逸仙路42巷25號1樓",
    "latitude": 25.040552,
    "longitude": 121.563129,
    "time": "24H"
  },
  {
    "name": "新東宮",
    "address": "台北市信義區松山路455號",
    "latitude": 25.039884,
    "longitude": 121.578039,
    "time": "06:00 ~ 23:00"
  },
  {
    "name": "道生",
    "address": "台北市信義區新仁里東興路57號",
    "latitude": 25.047321,
    "longitude": 121.566457,
    "time": "24H"
  },
  {
    "name": "夢廣場",
    "address": "台北市信義區松高路11號B2",
    "latitude": 25.039454,
    "longitude": 121.565645,
    "time": "24H"
  },
  {
    "name": "廣林",
    "address": "台北市信義區福德街84巷52號1樓",
    "latitude": 25.039048,
    "longitude": 121.581123,
    "time": "24H"
  },
  {
    "name": "廣慈",
    "address": "台北市信義區大道路115號117號1樓",
    "latitude": 25.039636,
    "longitude": 121.583143,
    "time": "24H"
  },
  {
    "name": "德虎",
    "address": "台北市信義區松德路157.159號",
    "latitude": 25.036535,
    "longitude": 121.574876,
    "time": "06:00 ~ 23:59"
  },
  {
    "name": "總部",
    "address": "台北市信義區東興路67號1樓",
    "latitude": 25.047029,
    "longitude": 121.566697,
    "time": "07:00 ~ 20:00"
  },
  {
    "name": "聯合",
    "address": "台北市信義區忠孝東路四段559巷6號",
    "latitude": 25.041836,
    "longitude": 121.563667,
    "time": "06:00 ~ 23:59"
  },
  {
    "name": "鑫國泰",
    "address": "台北市信義區忠孝東路五段68號24樓",
    "latitude": 25.040167,
    "longitude": 121.566811,
    "time": "07:30 ~ 19:30"
  },
  {
    "name": "三玉",
    "address": "台北市士林區天母東路88之1號1樓",
    "latitude": 25.118061,
    "longitude": 121.535807,
    "time": "06:00 ~ 23:59"
  },
  {
    "name": "士東",
    "address": "台北市士林區士東路42號1樓",
    "latitude": 25.111857,
    "longitude": 121.527654,
    "time": "06:00 ~ 23:59"
  },
  {
    "name": "天北",
    "address": "台北市士林區天母里天母西路39-1號1樓",
    "latitude": 25.118781,
    "longitude": 121.527473,
    "time": "06:00 ~ 23:59"
  },
  {
    "name": "天福",
    "address": "台北市士林區天福里天母東路８巷39號天母東路8巷41弄1號",
    "latitude": 25.116464,
    "longitude": 121.531653,
    "time": "06:00 ~ 23:59"
  },
  {
    "name": "天鑫",
    "address": "台北市士林區天玉街10號",
    "latitude": 25.119751,
    "longitude": 121.527006,
    "time": "06:00 ~ 23:59"
  },
  {
    "name": "文學",
    "address": "台北市士林區光華路26巷10號1樓",
    "latitude": 25.137299,
    "longitude": 121.54161,
    "time": "24H"
  },
  {
    "name": "至誠",
    "address": "台北市士林區至誠路二段31號",
    "latitude": 25.10181,
    "longitude": 121.529259,
    "time": "24H"
  },
  {
    "name": "兒樂",
    "address": "台北市士林區承德路五段55號",
    "latitude": 25.093999,
    "longitude": 121.5146,
    "time": "09:00 ~ 17:00"
  },
  {
    "name": "前港",
    "address": "台北市士林區後港街98之1號2號1樓",
    "latitude": 25.085879,
    "longitude": 121.521541,
    "time": "24H"
  },
  {
    "name": "前德",
    "address": "台北市士林區前港街17號",
    "latitude": 25.084828,
    "longitude": 121.522347,
    "time": "06:00 ~ 23:59"
  },
  {
    "name": "草山",
    "address": "台北市士林區格致路28號",
    "latitude": 25.136941,
    "longitude": 121.546449,
    "time": "24H"
  },
  {
    "name": "華岡",
    "address": "台北市士林區光華路26巷7-1號",
    "latitude": 25.136886,
    "longitude": 121.541482,
    "time": "06:00 ~ 23:59"
  },
  {
    "name": "新光醫",
    "address": "台北市士林區文昌路89號",
    "latitude": 25.095897,
    "longitude": 121.520817,
    "time": "06:00 ~ 23:00"
  },
  {
    "name": "新福慶",
    "address": "台北市士林區基河路1號1樓(部份)",
    "latitude": 25.086269,
    "longitude": 121.524946,
    "time": "24H"
  },
  {
    "name": "葫東",
    "address": "台北市士林區延平北路五段228號1樓230號1樓2樓",
    "latitude": 25.08422,
    "longitude": 121.51004,
    "time": "24H"
  },
  {
    "name": "福氣",
    "address": "台北市士林區延平北路六段122號124號1樓",
    "latitude": 25.089307,
    "longitude": 121.507855,
    "time": "06:00 ~ 23:59"
  },
  {
    "name": "福溢",
    "address": "台北市士林區德行西路96號",
    "latitude": 25.104145,
    "longitude": 121.521269,
    "time": "24H"
  },
  {
    "name": "劍潭站",
    "address": "台北市士林區中山北路五段65號1樓",
    "latitude": 25.084425,
    "longitude": 121.525126,
    "time": "07:00 ~ 23:00"
  },
  {
    "name": "德天",
    "address": "台北市士林區德行西路52號1樓",
    "latitude": 25.105272,
    "longitude": 121.522989,
    "time": "06:00 ~ 23:59"
  },
  {
    "name": "蘭雅",
    "address": "台北市士林區德行東路6之2號1樓",
    "latitude": 25.106284,
    "longitude": 121.525359,
    "time": "06:00 ~ 23:59"
  },
  {
    "name": "鑫仰德",
    "address": "台北市士林區仰德大道三段68號70號",
    "latitude": 25.118849,
    "longitude": 121.552876,
    "time": "06:00 ~ 23:59"
  },
  {
    "name": "鑫成",
    "address": "台北市士林區至誠路二段82號1樓",
    "latitude": 25.101557,
    "longitude": 121.527802,
    "time": "06:00 ~ 23:59"
  },
  {
    "name": "友華",
    "address": "台北市北投區承德路六段120號",
    "latitude": 25.103626,
    "longitude": 121.512513,
    "time": "06:00 ~ 23:00"
  },
  {
    "name": "天富",
    "address": "台北市北投區富貴一路3號1樓",
    "latitude": 25.113726,
    "longitude": 121.523837,
    "time": "24H"
  },
  {
    "name": "加賀屋",
    "address": "台北市北投區溫泉路73巷5號地下二樓之1",
    "latitude": 25.135692,
    "longitude": 121.506171,
    "time": "24H"
  },
  {
    "name": "北投石牌",
    "address": "台北市北投區承德路七段166號1樓",
    "latitude": 25.113405,
    "longitude": 121.508698,
    "time": "07:00 ~ 23:00"
  },
  {
    "name": "北投光明",
    "address": "台北市北投區光明路178號1樓",
    "latitude": 25.1356,
    "longitude": 121.503232,
    "time": "07:00 ~ 23:00"
  },
  {
    "name": "北榮",
    "address": "台北市北投區石牌路二段201號",
    "latitude": 25.120184,
    "longitude": 121.52016,
    "time": "24H"
  },
  {
    "name": "石捷",
    "address": "台北市北投區石牌路二段8號",
    "latitude": 25.115351,
    "longitude": 121.515502,
    "time": "06:00 ~ 23:59"
  },
  {
    "name": "立陽",
    "address": "台北市北投區立農街二段299號1樓",
    "latitude": 25.118701,
    "longitude": 121.516234,
    "time": "24H"
  },
  {
    "name": "明德",
    "address": "台北市北投區明德路114號",
    "latitude": 25.109879,
    "longitude": 121.520245,
    "time": "24H"
  },
  {
    "name": "政戰",
    "address": "台北市北投區中央北路二段15號17號",
    "latitude": 25.136464,
    "longitude": 121.496048,
    "time": "24H"
  },
  {
    "name": "振興醫",
    "address": "台北市北投區振興街45號B1",
    "latitude": 25.117715,
    "longitude": 121.522374,
    "time": "24H"
  },
  {
    "name": "華碩二",
    "address": "台北市北投區立德路115號3樓",
    "latitude": 25.126562,
    "longitude": 121.47041,
    "time": "06:30 ~ 21:30"
  },
  {
    "name": "陽明",
    "address": "台北市北投區立農街二段155號1樓",
    "latitude": 25.119674,
    "longitude": 121.51332,
    "time": "07:00 ~ 23:59"
  },
  {
    "name": "榮陽",
    "address": "台北市北投區西安街一段345號1樓",
    "latitude": 25.113651,
    "longitude": 121.515748,
    "time": "24H"
  },
  {
    "name": "擎天崗",
    "address": "台北市北投區湖山路一段12號",
    "latitude": 25.152493,
    "longitude": 121.547476,
    "time": "05:00 ~ 23:59"
  },
  {
    "name": "大眾",
    "address": "台北市內湖區港墘路221巷41號1樓",
    "latitude": 25.073334,
    "longitude": 121.575066,
    "time": "06:00 ~ 00:00"
  },
  {
    "name": "內湖威剛",
    "address": "台北市內湖區潭美街535號",
    "latitude": 25.061086,
    "longitude": 121.599984,
    "time": "07:00 ~ 21:00"
  },
  {
    "name": "日內瓦",
    "address": "台北市內湖區瑞光路76巷59號1樓",
    "latitude": 25.070196,
    "longitude": 121.580303,
    "time": "06:00 ~ 23:59"
  },
  {
    "name": "台企",
    "address": "台北市內湖區新明路122之7號",
    "latitude": 25.058315,
    "longitude": 121.587232,
    "time": "24H"
  },
  {
    "name": "民龍",
    "address": "台北市內湖區新湖二路26號",
    "latitude": 25.060813,
    "longitude": 121.575204,
    "time": "06:00 ~ 23:00"
  },
  {
    "name": "民醫",
    "address": "台北市內湖區民權東路六段123巷22號22之1號",
    "latitude": 25.069854,
    "longitude": 121.592779,
    "time": "24H"
  },
  {
    "name": "全球",
    "address": "台北市內湖區新湖二路329號1樓",
    "latitude": 25.064378,
    "longitude": 121.583186,
    "time": "06:00 ~ 23:59"
  },
  {
    "name": "名寶",
    "address": "台北市內湖區民權東路六段180巷17號19號",
    "latitude": 25.068245,
    "longitude": 121.592892,
    "time": "06:00 ~ 23:59"
  },
  {
    "name": "安美",
    "address": "台北市內湖區石潭里安康路32巷24弄22號1樓",
    "latitude": 25.06175,
    "longitude": 121.593984,
    "time": "07:00 ~ 21:00"
  },
  {
    "name": "成湖",
    "address": "台北市內湖區成功路四段346號",
    "latitude": 25.084854,
    "longitude": 121.599662,
    "time": "24H"
  },
  {
    "name": "行美",
    "address": "台北市內湖區行善路191號193號",
    "latitude": 25.059685,
    "longitude": 121.581699,
    "time": "06:00 ~ 23:59"
  },
  {
    "name": "行善",
    "address": "台北市內湖區行善路468號1樓新湖二路369號1樓",
    "latitude": 25.064635,
    "longitude": 121.585363,
    "time": "24H"
  },
  {
    "name": "見晴",
    "address": "台北市內湖區瑞光路196號",
    "latitude": 25.074982,
    "longitude": 121.576948,
    "time": "24H"
  },
  {
    "name": "里昂",
    "address": "台北市內湖區瑞光路406號1樓",
    "latitude": 25.078199,
    "longitude": 121.570641,
    "time": "07:00 ~ 23:00"
  },
  {
    "name": "金湖",
    "address": "台北市內湖區文湖街83號85號1樓",
    "latitude": 25.086572,
    "longitude": 121.564214,
    "time": "06:00 ~ 23:59"
  },
  {
    "name": "長鴻",
    "address": "台北市內湖區大湖山莊街219巷6號8號1樓",
    "latitude": 25.088435,
    "longitude": 121.59941,
    "time": "24H"
  },
  {
    "name": "星台",
    "address": "台北市內湖區南京東路六段392號1樓",
    "latitude": 25.060327,
    "longitude": 121.588588,
    "time": "07:00 ~ 20:00"
  },
  {
    "name": "洲子",
    "address": "台北市內湖區瑞光路517號1樓",
    "latitude": 25.079267,
    "longitude": 121.568966,
    "time": "06:00 ~ 23:00"
  },
  {
    "name": "參龍",
    "address": "台北市內湖區新湖一路95號1樓",
    "latitude": 25.058593,
    "longitude": 121.576222,
    "time": "24H"
  },
  {
    "name": "國企",
    "address": "台北市內湖區行善路136號1樓",
    "latitude": 25.057912,
    "longitude": 121.577704,
    "time": "24H"
  },
  {
    "name": "國醫",
    "address": "台北市內湖區成功路二段325號1樓",
    "latitude": 25.071908,
    "longitude": 121.593622,
    "time": "24H"
  },
  {
    "name": "康雲",
    "address": "台北市內湖區康寧路一段160號",
    "latitude": 25.078978,
    "longitude": 121.594443,
    "time": "06:00 ~ 01:00"
  },
  {
    "name": "康寧",
    "address": "台北市內湖區康寧路三段26巷1號",
    "latitude": 25.072185,
    "longitude": 121.607934,
    "time": "24H"
  },
  {
    "name": "康醫",
    "address": "台北市內湖區成功路五段420巷30號",
    "latitude": 25.075598,
    "longitude": 121.608619,
    "time": "06:00 ~ 23:59"
  },
  {
    "name": "清圳",
    "address": "台北市內湖區東湖路113巷88號",
    "latitude": 25.072068,
    "longitude": 121.61561,
    "time": "24H"
  },
  {
    "name": "堤頂",
    "address": "台北市內湖區堤頂大道二段411號1樓",
    "latitude": 25.08068,
    "longitude": 121.563235,
    "time": "06:00 ~ 22:59"
  },
  {
    "name": "湖光",
    "address": "台北市內湖區基湖路35巷13號1樓",
    "latitude": 25.079757,
    "longitude": 121.565585,
    "time": "06:00 ~ 23:59"
  },
  {
    "name": "紫陽",
    "address": "台北市內湖區紫陽里陽光街159號",
    "latitude": 25.074963,
    "longitude": 121.5852,
    "time": "24H"
  },
  {
    "name": "紫雲",
    "address": "台北市內湖區康寧路一段263號265號1樓",
    "latitude": 25.078875,
    "longitude": 121.598312,
    "time": "06:00 ~ 23:59"
  },
  {
    "name": "紫新",
    "address": "台北市內湖區康寧路一段34號",
    "latitude": 25.080297,
    "longitude": 121.591609,
    "time": "24H"
  },
  {
    "name": "華經",
    "address": "台北市內湖區行忠路30號",
    "latitude": 25.065267,
    "longitude": 121.577601,
    "time": "06:00 ~ 23:00"
  },
  {
    "name": "匯陽",
    "address": "台北市內湖區陽光街288號1樓",
    "latitude": 25.072843,
    "longitude": 121.575629,
    "time": "06:00 ~ 23:59"
  },
  {
    "name": "瑞和",
    "address": "台北市內湖區瑞光路316巷56號1樓",
    "latitude": 25.075833,
    "longitude": 121.573272,
    "time": "06:00 ~ 23:59"
  },
  {
    "name": "瑞東",
    "address": "台北市內湖區洲子街102號1樓",
    "latitude": 25.080078,
    "longitude": 121.57059,
    "time": "06:00 ~ 22:59"
  },
  {
    "name": "瑞富",
    "address": "台北市內湖區瑞光路188巷51號1樓",
    "latitude": 25.074075,
    "longitude": 121.576059,
    "time": "06:00 ~ 23:00"
  },
  {
    "name": "瑞景",
    "address": "台北市內湖區瑞光路583巷30號1樓",
    "latitude": 25.080753,
    "longitude": 121.568339,
    "time": "07:00 ~ 23:00"
  },
  {
    "name": "瑞寶",
    "address": "台北市內湖區瑞光路583巷27號1樓",
    "latitude": 25.080918,
    "longitude": 121.568115,
    "time": "06:00 ~ 23:59"
  },
  {
    "name": "瑞鑫",
    "address": "台北市內湖區瑞光路580號",
    "latitude": 25.080175,
    "longitude": 121.566309,
    "time": "06:00 ~ 23:00"
  },
  {
    "name": "瑞鑽",
    "address": "台北市內湖區瑞光路478巷24號1樓",
    "latitude": 25.078288,
    "longitude": 121.568673,
    "time": "06:00 ~ 23:59"
  },
  {
    "name": "碧綠",
    "address": "台北市內湖區內湖路三段61號63號樓59巷1號1樓",
    "latitude": 25.086114,
    "longitude": 121.591933,
    "time": "24H"
  },
  {
    "name": "墘都",
    "address": "台北市內湖區內湖路一段669號",
    "latitude": 25.079905,
    "longitude": 121.575809,
    "time": "24H"
  },
  {
    "name": "墘運",
    "address": "台北市內湖區洲子街12號1樓",
    "latitude": 25.078233,
    "longitude": 121.575154,
    "time": "06:00 ~ 22:00"
  },
  {
    "name": "德瑞",
    "address": "台北市內湖區洲子街70號1樓",
    "latitude": 25.079529,
    "longitude": 121.572034,
    "time": "07:00 ~ 23:00"
  },
  {
    "name": "德馨",
    "address": "台北市內湖區洲子街46號",
    "latitude": 25.07906,
    "longitude": 121.573387,
    "time": "06:00 ~ 23:59"
  },
  {
    "name": "數位",
    "address": "台北市內湖區石潭路157號",
    "latitude": 25.063513,
    "longitude": 121.589891,
    "time": "07:00 ~ 20:00"
  },
  {
    "name": "樂湖",
    "address": "台北市內湖區東湖路114號1樓",
    "latitude": 25.068204,
    "longitude": 121.615814,
    "time": "24H"
  },
  {
    "name": "樂陽",
    "address": "台北市內湖區陽光街349號1樓",
    "latitude": 25.073353,
    "longitude": 121.578318,
    "time": "06:00 ~ 23:59"
  },
  {
    "name": "銳陽",
    "address": "台北市內湖區文德路22巷44弄6號8號1樓",
    "latitude": 25.076813,
    "longitude": 121.580467,
    "time": "06:00 ~ 23:59"
  },
  {
    "name": "環武",
    "address": "台北市內湖區環山路一段8號1樓",
    "latitude": 25.083088,
    "longitude": 121.5654,
    "time": "24H"
  },
  {
    "name": "鴻瑞",
    "address": "台北市內湖區瑞光路335號1樓",
    "latitude": 25.077407,
    "longitude": 121.575081,
    "time": "07:00 ~ 23:00"
  },
  {
    "name": "麗安",
    "address": "台北市內湖區內湖路一段445號1樓",
    "latitude": 25.081342,
    "longitude": 121.572277,
    "time": "24H"
  },
  {
    "name": "寶湖",
    "address": "台北市內湖區民權東路六段180巷6號1樓",
    "latitude": 25.068081,
    "longitude": 121.59256,
    "time": "24H"
  },
  {
    "name": "馨瑩",
    "address": "台北市內湖區內湖路一段91巷2號",
    "latitude": 25.084548,
    "longitude": 121.561294,
    "time": "24H"
  },
  {
    "name": "權金",
    "address": "台北市內湖區金湖路405號1樓",
    "latitude": 25.073409,
    "longitude": 121.604391,
    "time": "24H"
  },
  {
    "name": "三井",
    "address": "台北市南港區經貿二路131號(B1-01300櫃位)",
    "latitude": 25.059345,
    "longitude": 121.617583,
    "time": "11:00 ~ 21:00"
  },
  {
    "name": "中坡",
    "address": "台北市南港區中坡南路47號1樓",
    "latitude": 25.042837,
    "longitude": 121.583626,
    "time": "24H"
  },
  {
    "name": "中貿",
    "address": "台北市南港區經貿二路186號2樓",
    "latitude": 25.059421,
    "longitude": 121.615486,
    "time": "07:00 ~ 21:30"
  },
  {
    "name": "台壽",
    "address": "台北市南港區經貿二路111號7樓",
    "latitude": 25.058579,
    "longitude": 121.61786,
    "time": "07:00 ~ 21:00"
  },
  {
    "name": "玉成",
    "address": "台北市南港區西新里南港路三段3號1樓",
    "latitude": 25.054043,
    "longitude": 121.592162,
    "time": "07:00 ~ 23:00"
  },
  {
    "name": "玉璽",
    "address": "台北市南港區昆陽街16號1樓",
    "latitude": 25.053455,
    "longitude": 121.592285,
    "time": "07:00 ~ 23:00"
  },
  {
    "name": "向揚",
    "address": "台北市南港區向陽路166號1樓",
    "latitude": 25.055919,
    "longitude": 121.594127,
    "time": "24H"
  },
  {
    "name": "南園二",
    "address": "台北市南港區園區街3號2樓之7",
    "latitude": 25.057536,
    "longitude": 121.612011,
    "time": "07:00 ~ 21:00"
  },
  {
    "name": "胡適",
    "address": "台北市南港區研究院路二段94號96號98巷1號",
    "latitude": 25.044149,
    "longitude": 121.61587,
    "time": "24H"
  },
  {
    "name": "重陽",
    "address": "台北市南港區重陽路179號181號1樓",
    "latitude": 25.056649,
    "longitude": 121.598628,
    "time": "24H"
  },
  {
    "name": "香陽",
    "address": "台北市南港區向陽路120巷2弄35號",
    "latitude": 25.054825,
    "longitude": 121.597659,
    "time": "07:00 ~ 23:00"
  },
  {
    "name": "凱松",
    "address": "台北市南港區八德路四段778號780號",
    "latitude": 25.050525,
    "longitude": 121.580271,
    "time": "24H"
  },
  {
    "name": "港泰",
    "address": "台北市南港區忠孝東路七段359號1樓",
    "latitude": 25.052247,
    "longitude": 121.604558,
    "time": "07:00 ~ 23:00"
  },
  {
    "name": "港捷",
    "address": "台北市南港區經貿二路1號",
    "latitude": 25.056063,
    "longitude": 121.617171,
    "time": "07:00 ~ 21:00"
  },
  {
    "name": "港勝",
    "address": "台北市南港區經貿二路2號B1樓",
    "latitude": 25.056311,
    "longitude": 121.616344,
    "time": "07:00 ~ 20:59"
  },
  {
    "name": "港寰",
    "address": "台北市南港區重陽路336號1樓2樓",
    "latitude": 25.057967,
    "longitude": 121.60653,
    "time": "06:00 ~ 23:00"
  },
  {
    "name": "港環球",
    "address": "台北市南港區忠孝東路七段371號B2",
    "latitude": 25.053038,
    "longitude": 121.608036,
    "time": "07:00 ~ 22:59"
  },
  {
    "name": "港麗",
    "address": "台北市南港區忠孝東路七段299號",
    "latitude": 25.052536,
    "longitude": 121.604722,
    "time": "11:00 ~ 21:30"
  },
  {
    "name": "愿秀",
    "address": "台北市南港區南港路二段1號",
    "latitude": 25.053975,
    "longitude": 121.605833,
    "time": "24H"
  },
  {
    "name": "聯坊",
    "address": "台北市南港區東新街118巷1號",
    "latitude": 25.046466,
    "longitude": 121.588323,
    "time": "24H"
  },
  {
    "name": "鵬馳",
    "address": "台北市南港區南港路三段49-1號",
    "latitude": 25.053227,
    "longitude": 121.589833,
    "time": "24H"
  },
  {
    "name": "鑫貿",
    "address": "台北市南港區經貿二路168號4樓",
    "latitude": 25.05889,
    "longitude": 121.61613,
    "time": "07:00 ~ 21:00"
  },
  {
    "name": "文一",
    "address": "台北市文山區木新路三段351號353號1樓",
    "latitude": 24.980245,
    "longitude": 121.55576,
    "time": "24H"
  },
  {
    "name": "文森",
    "address": "台北市文山區興隆路一段125巷1之1號",
    "latitude": 25.002226,
    "longitude": 121.542072,
    "time": "06:00 ~ 23:59"
  },
  {
    "name": "文儀",
    "address": "台北市文山區木新路三段54號56號",
    "latitude": 24.982614,
    "longitude": 121.564063,
    "time": "06:00 ~ 23:59"
  },
  {
    "name": "木盛",
    "address": "台北市文山區木柵路三段88號",
    "latitude": 24.988536,
    "longitude": 121.566929,
    "time": "06:00 ~ 23:59"
  },
  {
    "name": "木新",
    "address": "台北市文山區木新路二段255號",
    "latitude": 24.983168,
    "longitude": 121.566689,
    "time": "24H"
  },
  {
    "name": "木鳴",
    "address": "台北市文山區木柵路三段115號117號1樓",
    "latitude": 24.988949,
    "longitude": 121.568236,
    "time": "24H"
  },
  {
    "name": "世成",
    "address": "台北市文山區木柵路一段111號1樓(世新大管院)",
    "latitude": 24.987251,
    "longitude": 121.547904,
    "time": "07:00 ~ 22:00"
  },
  {
    "name": "台師大",
    "address": "台北市文山區汀州路四段88號行政大樓1樓",
    "latitude": 25.008059,
    "longitude": 121.536319,
    "time": "08:00 ~ 17:00"
  },
  {
    "name": "巨新",
    "address": "台北市文山區木新路二段212號及木新路二段218巷2號4號",
    "latitude": 24.983682,
    "longitude": 121.567478,
    "time": "24H"
  },
  {
    "name": "再興",
    "address": "台北市文山區興隆路四段55號1樓",
    "latitude": 24.989676,
    "longitude": 121.559878,
    "time": "07:00 ~ 23:59"
  },
  {
    "name": "和家",
    "address": "台北市文山區和平東路四段383號385號1樓",
    "latitude": 24.999267,
    "longitude": 121.574218,
    "time": "06:00 ~ 23:59"
  },
  {
    "name": "政新",
    "address": "台北市文山區新光路一段10號12號14號1樓及B1",
    "latitude": 24.988652,
    "longitude": 121.573592,
    "time": "06:00 ~ 23:59"
  },
  {
    "name": "動物園",
    "address": "台北市文山區新光路二段30號1樓",
    "latitude": 24.998811,
    "longitude": 121.579608,
    "time": "09:00 ~ 17:00"
  },
  {
    "name": "莘苑",
    "address": "台北市文山區新光路一段97號99號",
    "latitude": 24.99093,
    "longitude": 121.573823,
    "time": "07:00 ~ 23:00"
  },
  {
    "name": "景后",
    "address": "台北市文山區景興路202巷11號",
    "latitude": 24.991813,
    "longitude": 121.543202,
    "time": "24H"
  },
  {
    "name": "景高",
    "address": "台北市文山區景華里景興路14號",
    "latitude": 24.997875,
    "longitude": 121.544545,
    "time": "24H"
  },
  {
    "name": "景興",
    "address": "台北市文山區景興路113號115號",
    "latitude": 24.995084,
    "longitude": 121.544858,
    "time": "24H"
  },
  {
    "name": "萬芳醫",
    "address": "台北市文山區興隆路三段111號",
    "latitude": 24.999963,
    "longitude": 121.558387,
    "time": "24H"
  },
  {
    "name": "試院",
    "address": "台北市文山區木柵路一段139號141號",
    "latitude": 24.987633,
    "longitude": 121.550292,
    "time": "24H"
  },
  {
    "name": "維德",
    "address": "台北市文山區指南路二段64號(商學院)",
    "latitude": 24.986601,
    "longitude": 121.576683,
    "time": "07:00 ~ 22:00"
  },
  {
    "name": "興北",
    "address": "台北市文山區興隆路三段108號",
    "latitude": 24.999312,
    "longitude": 121.557376,
    "time": "24H"
  },
  {
    "name": "興佳",
    "address": "台北市文山區興隆路三段185巷7弄2號",
    "latitude": 24.995571,
    "longitude": 121.561681,
    "time": "24H"
  },
  {
    "name": "北基",
    "address": "新北市萬里區忠六街2號3號1樓",
    "latitude": 25.176547,
    "longitude": 121.684814,
    "time": "06:00 ~ 00:59"
  },
  {
    "name": "柳豐",
    "address": "新北市萬里區港東路162之11號162之12號",
    "latitude": 25.204033,
    "longitude": 121.690571,
    "time": "07:00 ~ 23:59"
  },
  {
    "name": "野柳東",
    "address": "新北市萬里區野柳里港東61號",
    "latitude": 25.203723,
    "longitude": 121.687706,
    "time": "24H"
  },
  {
    "name": "新野柳",
    "address": "新北市萬里區港東158號",
    "latitude": 25.204884,
    "longitude": 121.689835,
    "time": "08:00 ~ 20:00"
  },
  {
    "name": "新翡翠灣",
    "address": "新北市萬里區龜吼里美崙90號",
    "latitude": 25.185052,
    "longitude": 121.685859,
    "time": "24H"
  },
  {
    "name": "溫泉",
    "address": "新北市萬里區大鵬里萬里加投15鄰197號1樓",
    "latitude": 25.215003,
    "longitude": 121.644145,
    "time": "24H"
  },
  {
    "name": "中角",
    "address": "新北市金山區海興路172-2號",
    "latitude": 25.239842,
    "longitude": 121.632897,
    "time": "06:00 ~ 23:59"
  },
  {
    "name": "金山環金",
    "address": "新北市金山區環金路286號",
    "latitude": 25.219537,
    "longitude": 121.633222,
    "time": "07:00 ~ 23:00"
  },
  {
    "name": "大合宜",
    "address": "新北市板橋區合宜路173號1樓",
    "latitude": 24.998381,
    "longitude": 121.447108,
    "time": "24H"
  },
  {
    "name": "大庭",
    "address": "新北市板橋區國光里6鄰國光路65號1樓",
    "latitude": 25.018034,
    "longitude": 121.459051,
    "time": "24H"
  },
  {
    "name": "台藝大",
    "address": "新北市板橋區大觀路一段59號",
    "latitude": 25.006542,
    "longitude": 121.447929,
    "time": "24H"
  },
  {
    "name": "正隆",
    "address": "新北市板橋區民生路一段53號",
    "latitude": 25.012886,
    "longitude": 121.475591,
    "time": "06:00 ~ 23:59"
  },
  {
    "name": "光環",
    "address": "新北市板橋區光環路二段68號70號1樓",
    "latitude": 25.014752,
    "longitude": 121.481712,
    "time": "24H"
  },
  {
    "name": "合安",
    "address": "新北市板橋區合宜路111號1樓",
    "latitude": 24.999369,
    "longitude": 121.448381,
    "time": "24H"
  },
  {
    "name": "育軒",
    "address": "新北市板橋區漢生東路268號270號1樓",
    "latitude": 25.012996,
    "longitude": 121.468397,
    "time": "06:00 ~ 23:59"
  },
  {
    "name": "佳翰",
    "address": "新北市板橋區中山路二段170號",
    "latitude": 25.017191,
    "longitude": 121.47711,
    "time": "06:00 ~ 23:59"
  },
  {
    "name": "昇容",
    "address": "新北市板橋區重慶路346巷8號",
    "latitude": 24.997397,
    "longitude": 121.46366,
    "time": "06:00 ~ 23:59"
  },
  {
    "name": "板中",
    "address": "新北市板橋區府後街4.4-1.4-2號1樓",
    "latitude": 25.010224,
    "longitude": 121.459144,
    "time": "06:00 ~ 01:00"
  },
  {
    "name": "板府",
    "address": "新北市板橋區中山路一段158巷4號6號1樓",
    "latitude": 25.011694,
    "longitude": 121.466059,
    "time": "24H"
  },
  {
    "name": "板信",
    "address": "新北市板橋區信義路142號144號146號1樓",
    "latitude": 24.99191,
    "longitude": 121.45863,
    "time": "06:00 ~ 23:59"
  },
  {
    "name": "板運",
    "address": "新北市板橋區新站路68號1樓",
    "latitude": 25.01531,
    "longitude": 121.464729,
    "time": "07:00 ~ 23:00"
  },
  {
    "name": "板樂",
    "address": "新北市板橋區三民路二段35巷11號1樓",
    "latitude": 25.017901,
    "longitude": 121.48018,
    "time": "06:00 ~ 23:59"
  },
  {
    "name": "板耀",
    "address": "新北市板橋區自由路52號54號1樓",
    "latitude": 25.02354,
    "longitude": 121.4658,
    "time": "24H"
  },
  {
    "name": "板權",
    "address": "新北市板橋區民權路198、200號",
    "latitude": 25.013842,
    "longitude": 121.459106,
    "time": "24H"
  },
  {
    "name": "松林",
    "address": "新北市板橋區松江街109巷1號松江街107號",
    "latitude": 25.030554,
    "longitude": 121.469024,
    "time": "06:00 ~ 01:00"
  },
  {
    "name": "金福",
    "address": "新北市板橋區金門街330號1樓",
    "latitude": 24.984759,
    "longitude": 121.428292,
    "time": "06:00 ~ 23:59"
  },
  {
    "name": "埔運",
    "address": "新北市板橋區民生路三段40號42號1樓",
    "latitude": 25.025001,
    "longitude": 121.467567,
    "time": "06:00 ~ 00:59"
  },
  {
    "name": "泰民",
    "address": "新北市板橋區民族路222巷13.15號1樓",
    "latitude": 25.006825,
    "longitude": 121.468676,
    "time": "24H"
  },
  {
    "name": "浮洲",
    "address": "新北市板橋區大觀路一段38巷22號1樓",
    "latitude": 25.004341,
    "longitude": 121.446037,
    "time": "24H"
  },
  {
    "name": "偉嘉",
    "address": "新北市板橋區文化路一段270巷3弄2號、4號1樓",
    "latitude": 25.020818,
    "longitude": 121.467645,
    "time": "24H"
  },
  {
    "name": "智樂",
    "address": "新北市板橋區新生街89巷2號",
    "latitude": 25.022021,
    "longitude": 121.458214,
    "time": "06:00 ~ 23:59"
  },
  {
    "name": "新府",
    "address": "新北市板橋區新府路75號B2樓",
    "latitude": 25.013232,
    "longitude": 121.462501,
    "time": "07:00 ~ 23:00"
  },
  {
    "name": "新板橋",
    "address": "新北市板橋區文化路一段135號",
    "latitude": 25.01521,
    "longitude": 121.462031,
    "time": "06:00 ~ 01:00"
  },
  {
    "name": "新僑中",
    "address": "新北市板橋區僑中一街124巷3弄3號",
    "latitude": 25.012299,
    "longitude": 121.445737,
    "time": "24H"
  },
  {
    "name": "僑興",
    "address": "新北市板橋區僑中二街116巷2號.4號",
    "latitude": 25.006505,
    "longitude": 121.44555,
    "time": "24H"
  },
  {
    "name": "維群",
    "address": "新北市板橋區四維路139號",
    "latitude": 25.025324,
    "longitude": 121.465034,
    "time": "24H"
  },
  {
    "name": "縣東",
    "address": "新北市板橋區縣民大道二段108號1樓",
    "latitude": 25.015361,
    "longitude": 121.467153,
    "time": "24H"
  },
  {
    "name": "館東",
    "address": "新北市板橋區館前東路15、15之1、17號1樓",
    "latitude": 25.007239,
    "longitude": 121.460052,
    "time": "06:00 ~ 23:59"
  },
  {
    "name": "江北",
    "address": "新北市汐止區長江街97號",
    "latitude": 25.072762,
    "longitude": 121.658047,
    "time": "06:00 ~ 23:00"
  },
  {
    "name": "汐東",
    "address": "新北市汐止區忠孝東路430號432號1樓",
    "latitude": 25.072167,
    "longitude": 121.666118,
    "time": "06:00 ~ 23:59"
  },
  {
    "name": "汐科",
    "address": "新北市汐止區大同路二段167-1號1樓",
    "latitude": 25.064096,
    "longitude": 121.65108,
    "time": "06:00 ~ 23:59"
  },
  {
    "name": "汐園",
    "address": "新北市汐止區大同路一段237之7號1樓",
    "latitude": 25.058001,
    "longitude": 121.634892,
    "time": "06:00 ~ 21:00"
  },
  {
    "name": "君勻",
    "address": "新北市汐止區忠孝東路495號1樓",
    "latitude": 25.074484,
    "longitude": 121.66625,
    "time": "06:00 ~ 23:59"
  },
  {
    "name": "明園",
    "address": "新北市汐止區汐萬路二段62巷1號1樓",
    "latitude": 25.082295,
    "longitude": 121.649475,
    "time": "06:00 ~ 23:59"
  },
  {
    "name": "東科大",
    "address": "新北市汐止區新台五路一段96號",
    "latitude": 25.060248,
    "longitude": 121.648379,
    "time": "07:00 ~ 22:00"
  },
  {
    "name": "建德",
    "address": "新北市汐止區福德一路399號1樓",
    "latitude": 25.060512,
    "longitude": 121.627528,
    "time": "06:00 ~ 22:59"
  },
  {
    "name": "星野之森",
    "address": "新北市汐止區新台五路二段238巷3號1樓",
    "latitude": 25.064959,
    "longitude": 121.672171,
    "time": "06:00 ~ 23:59"
  },
  {
    "name": "茄安",
    "address": "新北市汐止區茄苳路259號1樓",
    "latitude": 25.068281,
    "longitude": 121.67202,
    "time": "06:00 ~ 22:59"
  },
  {
    "name": "勝吉",
    "address": "新北市汐止區新台五路一段114號",
    "latitude": 25.060724,
    "longitude": 121.649431,
    "time": "07:00 ~ 22:00"
  },
  {
    "name": "湖鑫",
    "address": "新北市汐止區湖前街37號1樓39號1樓",
    "latitude": 25.069698,
    "longitude": 121.632152,
    "time": "24H"
  },
  {
    "name": "福同",
    "address": "新北市汐止區福德一路178號",
    "latitude": 25.066024,
    "longitude": 121.635692,
    "time": "07:00 ~ 23:00"
  },
  {
    "name": "福安",
    "address": "新北市汐止區仁愛路178號180號1樓",
    "latitude": 25.065637,
    "longitude": 121.664735,
    "time": "06:00 ~ 22:59"
  },
  {
    "name": "遠東",
    "address": "新北市汐止區新台五路一段75號1樓之2",
    "latitude": 25.061255,
    "longitude": 121.645661,
    "time": "06:00 ~ 21:00"
  },
  {
    "name": "樟弘",
    "address": "新北市汐止區樟樹二路279號281號1樓",
    "latitude": 25.069233,
    "longitude": 121.640999,
    "time": "07:00 ~ 23:00"
  },
  {
    "name": "樟濃",
    "address": "新北市汐止區樟樹一路135巷19.21號",
    "latitude": 25.065527,
    "longitude": 121.641285,
    "time": "06:00 ~ 23:59"
  },
  {
    "name": "潤安",
    "address": "新北市汐止區龍安路32號",
    "latitude": 25.063918,
    "longitude": 121.655126,
    "time": "24H"
  },
  {
    "name": "橋東",
    "address": "新北市汐止區建成路31號33號1樓",
    "latitude": 25.072684,
    "longitude": 121.663984,
    "time": "06:00 ~ 23:59"
  },
  {
    "name": "聯合報",
    "address": "新北市汐止區大同路一段369號1樓",
    "latitude": 25.06093,
    "longitude": 121.641684,
    "time": "07:00 ~ 23:59"
  },
  {
    "name": "真誠",
    "address": "新北市深坑區北深路三段263號",
    "latitude": 25.004452,
    "longitude": 121.598863,
    "time": "24H"
  },
  {
    "name": "深坑埔新",
    "address": "新北市深坑區北深路二段57.59.61號",
    "latitude": 25.003897,
    "longitude": 121.618745,
    "time": "06:00 ~ 23:00"
  },
  {
    "name": "萬順",
    "address": "新北市深坑區北深路三段198號200號1樓",
    "latitude": 25.003757,
    "longitude": 121.601522,
    "time": "24H"
  },
  {
    "name": "鑫浦深",
    "address": "新北市深坑區文化街116號118號1樓",
    "latitude": 25.0019,
    "longitude": 121.615808,
    "time": "06:00 ~ 23:00"
  },
  {
    "name": "九份",
    "address": "新北市瑞芳區基山街3號",
    "latitude": 25.109733,
    "longitude": 121.84521,
    "time": "24H"
  },
  {
    "name": "丞展",
    "address": "新北市瑞芳區瑞濱路32之8號1樓",
    "latitude": 25.121112,
    "longitude": 121.823439,
    "time": "24H"
  },
  {
    "name": "瑞濱",
    "address": "新北市瑞芳區海濱路157號1樓",
    "latitude": 25.121838,
    "longitude": 121.829451,
    "time": "24H"
  },
  {
    "name": "鼻頭角",
    "address": "新北市瑞芳區鼻頭路227之4號1樓",
    "latitude": 25.123987,
    "longitude": 121.914165,
    "time": "24H"
  },
  {
    "name": "平溪",
    "address": "新北市平溪區靜安路二段338號340號",
    "latitude": 25.024259,
    "longitude": 121.737166,
    "time": "06:00 ~ 23:59"
  },
  {
    "name": "雙祥",
    "address": "新北市雙溪區雙溪村太平路65號67號",
    "latitude": 25.03591,
    "longitude": 121.865025,
    "time": "06:00 ~ 23:59"
  },
  {
    "name": "金澳底",
    "address": "新北市貢寮區仁和路218號1樓",
    "latitude": 25.053278,
    "longitude": 121.923869,
    "time": "06:00 ~ 23:00"
  },
  {
    "name": "新福隆",
    "address": "新北市貢寮區福隆里興隆街24之1號1樓",
    "latitude": 25.016729,
    "longitude": 121.944508,
    "time": "24H"
  },
  {
    "name": "福隆站",
    "address": "新北市貢寮區福隆里福隆街8號1樓",
    "latitude": 25.01614,
    "longitude": 121.944912,
    "time": "06:00 ~ 22:00"
  },
  {
    "name": "七張站",
    "address": "新北市新店區北新路二段152巷2號",
    "latitude": 24.975414,
    "longitude": 121.543246,
    "time": "24H"
  },
  {
    "name": "大坪林",
    "address": "新北市新店區民權路18號",
    "latitude": 24.983002,
    "longitude": 121.54204,
    "time": "24H"
  },
  {
    "name": "五峰",
    "address": "新北市新店區中興路一段252號",
    "latitude": 24.966817,
    "longitude": 121.544657,
    "time": "06:00 ~ 23:00"
  },
  {
    "name": "天闊",
    "address": "新北市新店區環河路16號1樓",
    "latitude": 24.961673,
    "longitude": 121.537274,
    "time": "24H"
  },
  {
    "name": "北宜",
    "address": "新北市新店區北宜路二段82-2號82-3號1樓",
    "latitude": 24.953323,
    "longitude": 121.553755,
    "time": "06:00 ~ 23:59"
  },
  {
    "name": "正民",
    "address": "新北市新店區中正路508號1樓",
    "latitude": 24.982984,
    "longitude": 121.533876,
    "time": "24H"
  },
  {
    "name": "正鵬",
    "address": "新北市新店區中正路688號690號1樓",
    "latitude": 24.990194,
    "longitude": 121.534141,
    "time": "24H"
  },
  {
    "name": "同仁",
    "address": "新北市新店區民權路96號",
    "latitude": 24.983069,
    "longitude": 121.536679,
    "time": "24H"
  },
  {
    "name": "安民",
    "address": "新北市新店區安民街133巷9號11號",
    "latitude": 24.969122,
    "longitude": 121.5161,
    "time": "24H"
  },
  {
    "name": "安坑",
    "address": "新北市新店區安民街346號348號1樓",
    "latitude": 24.975566,
    "longitude": 121.517009,
    "time": "24H"
  },
  {
    "name": "安佳",
    "address": "新北市新店區安祥路111號",
    "latitude": 24.956949,
    "longitude": 121.47537,
    "time": "24H"
  },
  {
    "name": "安峰",
    "address": "新北市新店區安康路二段350之3號",
    "latitude": 24.957756,
    "longitude": 121.503098,
    "time": "24H"
  },
  {
    "name": "安博",
    "address": "新北市新店區安民街154號154-1號1樓",
    "latitude": 24.96999,
    "longitude": 121.516763,
    "time": "24H"
  },
  {
    "name": "安德",
    "address": "新北市新店區安德街8號10號12號1樓",
    "latitude": 24.962806,
    "longitude": 121.512138,
    "time": "24H"
  },
  {
    "name": "百建",
    "address": "新北市新店區民族路239號241號1樓",
    "latitude": 24.975394,
    "longitude": 121.536504,
    "time": "06:00 ~ 23:59"
  },
  {
    "name": "南強",
    "address": "新北市新店區中興路三段168號1F",
    "latitude": 24.98096,
    "longitude": 121.544409,
    "time": "24H"
  },
  {
    "name": "真莘",
    "address": "新北市新店區中正路362號",
    "latitude": 24.976293,
    "longitude": 121.535752,
    "time": "24H"
  },
  {
    "name": "真親切",
    "address": "新北市新店區中央路212號214號",
    "latitude": 24.9735,
    "longitude": 121.529886,
    "time": "24H"
  },
  {
    "name": "能仁",
    "address": "新北市新店區光明街38號",
    "latitude": 24.959177,
    "longitude": 121.538447,
    "time": "24H"
  },
  {
    "name": "統和",
    "address": "新北市新店區安和里安民街335號337號",
    "latitude": 24.974797,
    "longitude": 121.517149,
    "time": "24H"
  },
  {
    "name": "統客",
    "address": "新北市新店區寶興路49號",
    "latitude": 24.973283,
    "longitude": 121.549455,
    "time": "24H"
  },
  {
    "name": "莊鑫",
    "address": "新北市新店區中正路503之3號503之4號1樓2樓",
    "latitude": 24.984231,
    "longitude": 121.533436,
    "time": "06:00 ~ 23:59"
  },
  {
    "name": "愛莘",
    "address": "新北市新店區民族路112號B1樓",
    "latitude": 24.977517,
    "longitude": 121.535597,
    "time": "06:00 ~ 21:59"
  },
  {
    "name": "新店",
    "address": "新北市新店區碧潭路14號1樓",
    "latitude": 24.956341,
    "longitude": 121.534732,
    "time": "06:00 ~ 23:59"
  },
  {
    "name": "新店豐和",
    "address": "新北市新店區央北一路100號",
    "latitude": 24.977652,
    "longitude": 121.52721,
    "time": "07:00 ~ 23:00"
  },
  {
    "name": "新店寶",
    "address": "新北市新店區央北二路61、63、65號",
    "latitude": 24.97708,
    "longitude": 121.530644,
    "time": "06:00 ~ 23:00"
  },
  {
    "name": "新矽谷",
    "address": "新北市新店區北新路三段205-1號",
    "latitude": 24.984448,
    "longitude": 121.539933,
    "time": "07:00 ~ 23:00"
  },
  {
    "name": "新極景",
    "address": "新北市新店區北新路二段252-1號",
    "latitude": 24.978,
    "longitude": 121.542865,
    "time": "06:00 ~ 23:59"
  },
  {
    "name": "新福民",
    "address": "新北市新店區中央路135號1樓",
    "latitude": 24.973797,
    "longitude": 121.530388,
    "time": "24H"
  },
  {
    "name": "新廣",
    "address": "新北市新店區中正路542之5號1樓",
    "latitude": 24.985693,
    "longitude": 121.533791,
    "time": "06:00 ~ 23:59"
  },
  {
    "name": "新贊",
    "address": "新北市新店區北新路一段14號1樓",
    "latitude": 24.965489,
    "longitude": 121.540914,
    "time": "24H"
  },
  {
    "name": "楓華",
    "address": "新北市新店區中華路20號1樓",
    "latitude": 24.967704,
    "longitude": 121.540496,
    "time": "06:00 ~ 23:59"
  },
  {
    "name": "溪園",
    "address": "新北市新店區溪園路391之1號1樓",
    "latitude": 24.979138,
    "longitude": 121.523996,
    "time": "06:00 ~ 23:59"
  },
  {
    "name": "裕隆",
    "address": "新北市新店區中興路三段7號",
    "latitude": 24.977837,
    "longitude": 121.545522,
    "time": "06:00 ~ 23:00"
  },
  {
    "name": "裕隆城",
    "address": "新北市新店區中興路三段70號",
    "latitude": 24.977834,
    "longitude": 121.546289,
    "time": "07:00 ~ 22:00"
  },
  {
    "name": "碧湖",
    "address": "新北市新店區文中路2號1樓2樓",
    "latitude": 24.956883,
    "longitude": 121.537442,
    "time": "24H"
  },
  {
    "name": "碧興",
    "address": "新北市新店區北宜路一段120號122號1樓",
    "latitude": 24.954965,
    "longitude": 121.539068,
    "time": "06:00 ~ 23:59"
  },
  {
    "name": "福德",
    "address": "新北市新店區三民路179號1樓",
    "latitude": 24.975259,
    "longitude": 121.534852,
    "time": "06:00 ~ 23:59"
  },
  {
    "name": "德正",
    "address": "新北市新店區德正街23巷1號",
    "latitude": 24.971966,
    "longitude": 121.544057,
    "time": "06:00 ~ 23:59"
  },
  {
    "name": "雙鑫",
    "address": "新北市新店區北新路二段169號",
    "latitude": 24.976235,
    "longitude": 121.542734,
    "time": "06:00 ~ 23:59"
  },
  {
    "name": "寶中",
    "address": "新北市新店區寶慶街66號",
    "latitude": 24.986891,
    "longitude": 121.541804,
    "time": "24H"
  },
  {
    "name": "寶元",
    "address": "新北市新店區寶橋路156之2號156之3號1樓",
    "latitude": 24.976944,
    "longitude": 121.548638,
    "time": "06:00 ~ 23:59"
  },
  {
    "name": "寶科",
    "address": "新北市新店區寶橋路235巷5號1樓",
    "latitude": 24.98019,
    "longitude": 121.551536,
    "time": "07:00 ~ 23:00"
  },
  {
    "name": "寶強",
    "address": "新北市新店區寶中路88號1樓",
    "latitude": 24.980264,
    "longitude": 121.548623,
    "time": "06:00 ~ 23:59"
  },
  {
    "name": "寶隆",
    "address": "新北市新店區寶橋路69號1樓",
    "latitude": 24.97518,
    "longitude": 121.545407,
    "time": "24H"
  },
  {
    "name": "寶福",
    "address": "新北市新店區寶橋路78巷3號1F",
    "latitude": 24.975135,
    "longitude": 121.546956,
    "time": "24H"
  },
  {
    "name": "寶興",
    "address": "新北市新店區寶橋路88號1樓",
    "latitude": 24.975616,
    "longitude": 121.546593,
    "time": "06:00 ~ 23:59"
  },
  {
    "name": "權強",
    "address": "新北市新店區民權路68號",
    "latitude": 24.983052,
    "longitude": 121.538332,
    "time": "24H"
  },
  {
    "name": "鑫鋒",
    "address": "新北市新店區北新路一段90號1樓",
    "latitude": 24.968155,
    "longitude": 121.541843,
    "time": "24H"
  },
  {
    "name": "坪林",
    "address": "新北市坪林區北宜路八段138號140號1樓",
    "latitude": 24.934432,
    "longitude": 121.706671,
    "time": "24H"
  },
  {
    "name": "坪林北宜",
    "address": "新北市坪林區北宜路八段229.231號1樓",
    "latitude": 24.935046,
    "longitude": 121.709006,
    "time": "06:00 ~ 23:00"
  },
  {
    "name": "那魯灣",
    "address": "新北市烏來區烏來里溫泉街80號",
    "latitude": 24.86197,
    "longitude": 121.550714,
    "time": "24H"
  },
  {
    "name": "大正",
    "address": "新北市永和區中正路559號561號1樓",
    "latitude": 25.008461,
    "longitude": 121.516721,
    "time": "24H"
  },
  {
    "name": "仁寶",
    "address": "新北市永和區仁愛路266號1樓",
    "latitude": 25.008607,
    "longitude": 121.504199,
    "time": "06:00 ~ 23:59"
  },
  {
    "name": "元坊",
    "address": "新北市永和區保安路134號136號",
    "latitude": 25.01523,
    "longitude": 121.508694,
    "time": "24H"
  },
  {
    "name": "正福",
    "address": "新北市永和區中正路546號1樓",
    "latitude": 25.005424,
    "longitude": 121.517278,
    "time": "24H"
  },
  {
    "name": "民光",
    "address": "新北市永和區中正路166號",
    "latitude": 24.996708,
    "longitude": 121.515032,
    "time": "24H"
  },
  {
    "name": "永竹",
    "address": "新北市永和區竹林路172號174號1樓",
    "latitude": 25.010104,
    "longitude": 121.520319,
    "time": "24H"
  },
  {
    "name": "永利",
    "address": "新北市永和區永元里永元路93號1樓",
    "latitude": 25.0017,
    "longitude": 121.522322,
    "time": "24H"
  },
  {
    "name": "永和",
    "address": "新北市永和區文化路7號",
    "latitude": 25.014975,
    "longitude": 121.515375,
    "time": "24H"
  },
  {
    "name": "永藝",
    "address": "新北市永和區永和路二段272號274號1樓",
    "latitude": 25.015237,
    "longitude": 121.516077,
    "time": "24H"
  },
  {
    "name": "永鑽",
    "address": "新北市永和區中山路一段110號1樓",
    "latitude": 25.010432,
    "longitude": 121.510848,
    "time": "07:00 ~ 23:59"
  },
  {
    "name": "竹勝",
    "address": "新北市永和區竹林路39巷21之1號1樓",
    "latitude": 25.01488,
    "longitude": 121.51889,
    "time": "24H"
  },
  {
    "name": "宏圖",
    "address": "新北市永和區保平路10號12號1樓",
    "latitude": 25.007659,
    "longitude": 121.512761,
    "time": "24H"
  },
  {
    "name": "和和",
    "address": "新北市永和區秀朗路二段128號130號1樓",
    "latitude": 25.001488,
    "longitude": 121.524932,
    "time": "24H"
  },
  {
    "name": "宗美",
    "address": "新北市永和區福和路76巷2號4號1樓",
    "latitude": 25.008273,
    "longitude": 121.523104,
    "time": "24H"
  },
  {
    "name": "保平",
    "address": "新北市永和區保平路135號",
    "latitude": 25.006191,
    "longitude": 121.510263,
    "time": "24H"
  },
  {
    "name": "保福",
    "address": "新北市永和區仁愛路202巷16號及保福路二段109巷43號",
    "latitude": 25.012726,
    "longitude": 121.509127,
    "time": "24H"
  },
  {
    "name": "添丁",
    "address": "新北市永和區永貞路365號367號1樓",
    "latitude": 25.007836,
    "longitude": 121.508707,
    "time": "07:00 ~ 23:59"
  },
  {
    "name": "富朋",
    "address": "新北市永和區永和路二段116號",
    "latitude": 25.011985,
    "longitude": 121.515144,
    "time": "24H"
  },
  {
    "name": "復美",
    "address": "新北市永和區秀朗路一段146號",
    "latitude": 25.00333,
    "longitude": 121.518158,
    "time": "07:00 ~ 23:00"
  },
  {
    "name": "園和",
    "address": "新北市永和區仁愛路267號269號",
    "latitude": 25.009877,
    "longitude": 121.506313,
    "time": "24H"
  },
  {
    "name": "新永元",
    "address": "新北市永和區永元路28號30號",
    "latitude": 25.00068,
    "longitude": 121.52226,
    "time": "24H"
  },
  {
    "name": "新永愛",
    "address": "新北市永和區永平路314號316號1樓",
    "latitude": 25.012702,
    "longitude": 121.507041,
    "time": "24H"
  },
  {
    "name": "新保捷",
    "address": "新北市永和區保生路22巷2號1樓",
    "latitude": 25.007635,
    "longitude": 121.506959,
    "time": "07:00 ~ 23:59"
  },
  {
    "name": "樂華",
    "address": "新北市永和區永和路一段143之1號145號1至2樓",
    "latitude": 25.008992,
    "longitude": 121.514037,
    "time": "24H"
  },
  {
    "name": "環河東",
    "address": "新北市永和區環河東路四段22號",
    "latitude": 24.999452,
    "longitude": 121.528765,
    "time": "24H"
  },
  {
    "name": "邁群",
    "address": "新北市永和區民生路42號",
    "latitude": 24.996854,
    "longitude": 121.522432,
    "time": "24H"
  },
  {
    "name": "雙盈",
    "address": "新北市永和區中正路465巷5、7號",
    "latitude": 25.005867,
    "longitude": 121.516491,
    "time": "24H"
  },
  {
    "name": "一新",
    "address": "新北市中和區永和路56號58號1樓",
    "latitude": 25.004225,
    "longitude": 121.499155,
    "time": "06:00 ~ 23:59"
  },
  {
    "name": "中安",
    "address": "新北市中和區宜安路62號66號",
    "latitude": 24.997141,
    "longitude": 121.511564,
    "time": "07:00 ~ 23:59"
  },
  {
    "name": "中和",
    "address": "新北市中和區橋和路9號1樓",
    "latitude": 25.005278,
    "longitude": 121.487847,
    "time": "07:00 ~ 23:00"
  },
  {
    "name": "元龍",
    "address": "新北市中和區板南路655號1樓",
    "latitude": 25.007847,
    "longitude": 121.484075,
    "time": "07:00 ~ 23:00"
  },
  {
    "name": "天綻",
    "address": "新北市中和區建八路16號1樓",
    "latitude": 24.99821,
    "longitude": 121.486782,
    "time": "07:00 ~ 23:00"
  },
  {
    "name": "日昇",
    "address": "新北市中和區中和路326號1樓",
    "latitude": 25.001035,
    "longitude": 121.50977,
    "time": "24H"
  },
  {
    "name": "日福",
    "address": "新北市中和區中和路380號",
    "latitude": 25.002078,
    "longitude": 121.510679,
    "time": "24H"
  },
  {
    "name": "水源",
    "address": "新北市中和區中山路二段62號",
    "latitude": 25.00469,
    "longitude": 121.503978,
    "time": "06:00 ~ 23:00"
  },
  {
    "name": "世紀",
    "address": "新北市中和區中正路710號1樓K棟",
    "latitude": 24.9974,
    "longitude": 121.485553,
    "time": "07:00 ~ 23:00"
  },
  {
    "name": "永宜",
    "address": "新北市中和區宜安路118巷22號24號1樓",
    "latitude": 24.998657,
    "longitude": 121.510941,
    "time": "24H"
  },
  {
    "name": "永美",
    "address": "新北市中和區中山路二段2巷45弄6號8號1樓",
    "latitude": 25.006942,
    "longitude": 121.502126,
    "time": "24H"
  },
  {
    "name": "立德",
    "address": "新北市中和區立德街103號",
    "latitude": 25.009032,
    "longitude": 121.485143,
    "time": "24H"
  },
  {
    "name": "安斌",
    "address": "新北市中和區中安街84號86號1樓",
    "latitude": 25.001736,
    "longitude": 121.511985,
    "time": "07:00 ~ 23:00"
  },
  {
    "name": "艾德蒙",
    "address": "新北市中和區中正路738號1樓",
    "latitude": 24.998015,
    "longitude": 121.485592,
    "time": "07:00 ~ 23:00"
  },
  {
    "name": "佑鑫",
    "address": "新北市中和區立德街180號1樓",
    "latitude": 25.008903,
    "longitude": 121.485769,
    "time": "07:00 ~ 23:00"
  },
  {
    "name": "宏禧",
    "address": "新北市中和區景平路429號1樓2樓",
    "latitude": 24.995371,
    "longitude": 121.50139,
    "time": "24H"
  },
  {
    "name": "秀景",
    "address": "新北市中和區成功路115號117號",
    "latitude": 24.991004,
    "longitude": 121.526024,
    "time": "24H"
  },
  {
    "name": "佳客",
    "address": "新北市中和區民德路126號126之1號",
    "latitude": 25.001332,
    "longitude": 121.468485,
    "time": "24H"
  },
  {
    "name": "和醫",
    "address": "新北市中和區中正路291號B1",
    "latitude": 24.993787,
    "longitude": 121.493879,
    "time": "24H"
  },
  {
    "name": "和醫三",
    "address": "新北市中和區圓通路301號1樓(雙和醫院第三醫大樓)",
    "latitude": 24.991235,
    "longitude": 121.494183,
    "time": "24H"
  },
  {
    "name": "宜安",
    "address": "新北市中和區宜安路103號1樓",
    "latitude": 24.997714,
    "longitude": 121.510363,
    "time": "24H"
  },
  {
    "name": "杰明",
    "address": "新北市中和區泰和街25號1樓",
    "latitude": 24.999865,
    "longitude": 121.499419,
    "time": "24H"
  },
  {
    "name": "板南",
    "address": "新北市中和區板南路486號",
    "latitude": 25.006472,
    "longitude": 121.488064,
    "time": "06:00 ~ 23:59"
  },
  {
    "name": "松旺",
    "address": "新北市中和區中山路三段108號",
    "latitude": 25.005803,
    "longitude": 121.477052,
    "time": "24H"
  },
  {
    "name": "建一",
    "address": "新北市中和區建康路101號",
    "latitude": 25.000307,
    "longitude": 121.488296,
    "time": "06:00 ~ 23:59"
  },
  {
    "name": "建六",
    "address": "新北市中和區建六路62號",
    "latitude": 25.002031,
    "longitude": 121.486109,
    "time": "07:00 ~ 23:00"
  },
  {
    "name": "建康",
    "address": "新北市中和區建康路270號",
    "latitude": 25.000138,
    "longitude": 121.492926,
    "time": "06:00 ~ 23:00"
  },
  {
    "name": "春吉",
    "address": "新北市中和區建一路148號1樓",
    "latitude": 24.998782,
    "longitude": 121.487962,
    "time": "24H"
  },
  {
    "name": "家美",
    "address": "新北市中和區中山路二段317號之1",
    "latitude": 25.002031,
    "longitude": 121.493912,
    "time": "24H"
  },
  {
    "name": "泰隆",
    "address": "新北市中和區立德街102號",
    "latitude": 25.008165,
    "longitude": 121.487055,
    "time": "07:00 ~ 22:59"
  },
  {
    "name": "得晴",
    "address": "新北市中和區景平路239巷1號3-5號1樓",
    "latitude": 24.992683,
    "longitude": 121.509926,
    "time": "24H"
  },
  {
    "name": "連通",
    "address": "新北市中和區圓通路293號",
    "latitude": 24.992534,
    "longitude": 121.494944,
    "time": "06:00 ~ 23:59"
  },
  {
    "name": "連發",
    "address": "新北市中和區連城路208號1樓2樓",
    "latitude": 24.996645,
    "longitude": 121.491678,
    "time": "24H"
  },
  {
    "name": "景旺",
    "address": "新北市中和區成功路1號",
    "latitude": 24.994185,
    "longitude": 121.526373,
    "time": "24H"
  },
  {
    "name": "景陽",
    "address": "新北市中和區景新街29號31號33號",
    "latitude": 24.999205,
    "longitude": 121.503821,
    "time": "06:00 ~ 23:59"
  },
  {
    "name": "森森",
    "address": "新北市中和區建八路174號1樓",
    "latitude": 24.998511,
    "longitude": 121.490833,
    "time": "24H"
  },
  {
    "name": "圓德",
    "address": "新北市中和區圓通路391之3號391之4號391之5號1樓",
    "latitude": 24.989124,
    "longitude": 121.489915,
    "time": "24H"
  },
  {
    "name": "新生",
    "address": "新北市中和區新生街243號245號1樓",
    "latitude": 24.998851,
    "longitude": 121.483892,
    "time": "24H"
  },
  {
    "name": "新連正",
    "address": "新北市中和區連城路347巷2號1樓",
    "latitude": 24.995904,
    "longitude": 121.487995,
    "time": "06:00 ~ 23:59"
  },
  {
    "name": "椰城",
    "address": "新北市中和區安平路61號",
    "latitude": 24.995597,
    "longitude": 121.510029,
    "time": "24H"
  },
  {
    "name": "福和",
    "address": "新北市中和區秀明里大勇街25巷1號1樓",
    "latitude": 24.993186,
    "longitude": 121.517158,
    "time": "24H"
  },
  {
    "name": "廣美",
    "address": "新北市中和區中和路52號1.2樓",
    "latitude": 25.000898,
    "longitude": 121.500538,
    "time": "24H"
  },
  {
    "name": "德偉",
    "address": "新北市中和區中興街162號164號",
    "latitude": 24.991505,
    "longitude": 121.499828,
    "time": "24H"
  },
  {
    "name": "樂鑫",
    "address": "新北市中和區新生街146號",
    "latitude": 25.000729,
    "longitude": 121.483532,
    "time": "24H"
  },
  {
    "name": "橋安",
    "address": "新北市中和區橋安街20號1樓",
    "latitude": 25.005364,
    "longitude": 121.4923,
    "time": "07:00 ~ 23:00"
  },
  {
    "name": "橋和",
    "address": "新北市中和區橋和路99號1樓",
    "latitude": 25.005638,
    "longitude": 121.490672,
    "time": "06:00 ~ 23:59"
  },
  {
    "name": "雙秀",
    "address": "新北市中和區秀朗路三段40.42號",
    "latitude": 24.995851,
    "longitude": 121.526374,
    "time": "24H"
  },
  {
    "name": "土城",
    "address": "新北市土城區中央路三段42-1號1樓",
    "latitude": 24.96783,
    "longitude": 121.437196,
    "time": "24H"
  },
  {
    "name": "中山二",
    "address": "新北市土城區中山路3-2號2樓",
    "latitude": 0,
    "longitude": 0,
    "time": "07:00 ~ 20:00"
  },
  {
    "name": "延城",
    "address": "新北市土城區延和路203號1樓",
    "latitude": 24.990294,
    "longitude": 121.469739,
    "time": "24H"
  },
  {
    "name": "承天",
    "address": "新北市土城區承天路1號",
    "latitude": 24.966287,
    "longitude": 121.435906,
    "time": "24H"
  },
  {
    "name": "泳豐",
    "address": "新北市土城區永豐路264之1號",
    "latitude": 24.978765,
    "longitude": 121.469618,
    "time": "05:00 ~ 23:59"
  },
  {
    "name": "金裕",
    "address": "新北市土城區裕民路255號1樓",
    "latitude": 24.982921,
    "longitude": 121.454831,
    "time": "24H"
  },
  {
    "name": "信利",
    "address": "新北市土城區興城路96巷4號",
    "latitude": 24.971878,
    "longitude": 121.440253,
    "time": "24H"
  },
  {
    "name": "皇翔",
    "address": "新北市土城區中央路一段88號1樓、裕民路10-1號.10號.8-1號.8號",
    "latitude": 24.988944,
    "longitude": 121.446974,
    "time": "24H"
  },
  {
    "name": "祥泰",
    "address": "新北市土城區中山路38號",
    "latitude": 24.964254,
    "longitude": 121.425618,
    "time": "24H"
  },
  {
    "name": "新永寧",
    "address": "新北市土城區中央路三段191之1號及永寧路1號3號",
    "latitude": 24.964747,
    "longitude": 121.430618,
    "time": "24H"
  },
  {
    "name": "新亞洲",
    "address": "新北市土城區亞洲路110號112號1樓",
    "latitude": 24.972286,
    "longitude": 121.434111,
    "time": "24H"
  },
  {
    "name": "新學府",
    "address": "新北市土城區學府路一段223號225號1樓",
    "latitude": 24.98412,
    "longitude": 121.451403,
    "time": "06:00 ~ 23:59"
  },
  {
    "name": "學城",
    "address": "新北市土城區學府路一段118號",
    "latitude": 24.987597,
    "longitude": 121.455445,
    "time": "24H"
  },
  {
    "name": "學裕",
    "address": "新北市土城區學成路91巷2號93號1樓",
    "latitude": 24.988466,
    "longitude": 121.450824,
    "time": "24H"
  },
  {
    "name": "濬家",
    "address": "新北市土城區廣明街2號",
    "latitude": 24.991784,
    "longitude": 121.456114,
    "time": "24H"
  },
  {
    "name": "三角湧",
    "address": "新北市三峽區中正路二段200號",
    "latitude": 24.91444,
    "longitude": 121.365766,
    "time": "24H"
  },
  {
    "name": "峽北",
    "address": "新北市三峽區大同路9號1樓",
    "latitude": 24.928808,
    "longitude": 121.377499,
    "time": "06:00 ~ 00:00"
  },
  {
    "name": "TBI",
    "address": "新北市樹林區三多路139號1樓",
    "latitude": 25.007526,
    "longitude": 121.414628,
    "time": "06:00 ~ 23:59"
  },
  {
    "name": "大展",
    "address": "新北市樹林區俊英街252號1樓",
    "latitude": 25.01098,
    "longitude": 121.424588,
    "time": "24H"
  },
  {
    "name": "大智通",
    "address": "新北市樹林區佳園路二段70-1號",
    "latitude": 24.959562,
    "longitude": 121.390565,
    "time": "24H"
  },
  {
    "name": "佳辰",
    "address": "新北市樹林區佳園路三段488號",
    "latitude": 24.944283,
    "longitude": 121.38244,
    "time": "06:00 ~ 23:59"
  },
  {
    "name": "昌聖",
    "address": "新北市樹林區文化街21號23號1樓",
    "latitude": 24.987576,
    "longitude": 121.419369,
    "time": "24H"
  },
  {
    "name": "武林",
    "address": "新北市樹林區光華街2號4號6號",
    "latitude": 25.003758,
    "longitude": 121.41346,
    "time": "24H"
  },
  {
    "name": "俊盛",
    "address": "新北市樹林區俊興街156號",
    "latitude": 25.012774,
    "longitude": 121.417222,
    "time": "24H"
  },
  {
    "name": "俊興",
    "address": "新北市樹林區三俊街172號1樓",
    "latitude": 25.015295,
    "longitude": 121.417667,
    "time": "06:00 ~ 23:59"
  },
  {
    "name": "順中",
    "address": "新北市樹林區中山路二段151巷12-2號",
    "latitude": 24.977921,
    "longitude": 121.406908,
    "time": "06:00 ~ 23:59"
  },
  {
    "name": "順興",
    "address": "新北市樹林區東興街41號",
    "latitude": 24.976538,
    "longitude": 121.411511,
    "time": "24H"
  },
  {
    "name": "慶嶸",
    "address": "新北市樹林區保安街一段323號323-1號1樓",
    "latitude": 24.998149,
    "longitude": 121.417738,
    "time": "24H"
  },
  {
    "name": "樹安",
    "address": "新北市樹林區大安路530號1樓",
    "latitude": 24.985878,
    "longitude": 121.413653,
    "time": "24H"
  },
  {
    "name": "樹復",
    "address": "新北市樹林區復興路340號",
    "latitude": 24.986306,
    "longitude": 121.415968,
    "time": "06:00 ~ 23:59"
  },
  {
    "name": "樹躍",
    "address": "新北市樹林區中正路438號.440號",
    "latitude": 25.011818,
    "longitude": 121.413491,
    "time": "05:00 ~ 23:59"
  },
  {
    "name": "永順",
    "address": "新北市鶯歌區永和街126及128號1樓",
    "latitude": 24.969374,
    "longitude": 121.334942,
    "time": "24H"
  },
  {
    "name": "聖陶",
    "address": "新北市鶯歌區文化路407號411號",
    "latitude": 24.949566,
    "longitude": 121.35289,
    "time": "24H"
  },
  {
    "name": "歌德",
    "address": "新北市鶯歌區德昌二街77號之1",
    "latitude": 24.957528,
    "longitude": 121.333241,
    "time": "24H"
  },
  {
    "name": "鶯瓷",
    "address": "新北市鶯歌區尖山埔路100號102號",
    "latitude": 24.95123,
    "longitude": 121.347451,
    "time": "06:00 ~ 23:59"
  },
  {
    "name": "三好",
    "address": "新北市三重區自強路四段102號104號1樓",
    "latitude": 25.079812,
    "longitude": 121.491267,
    "time": "24H"
  },
  {
    "name": "三安",
    "address": "新北市三重區正義北路235號",
    "latitude": 25.069228,
    "longitude": 121.495862,
    "time": "24H"
  },
  {
    "name": "三重一",
    "address": "新北市三重區正義南路133號135號",
    "latitude": 25.057855,
    "longitude": 121.49873,
    "time": "24H"
  },
  {
    "name": "三重向榮",
    "address": "新北市三重區大智街96號及長壽西街170號",
    "latitude": 25.066346,
    "longitude": 121.49337,
    "time": "24H"
  },
  {
    "name": "川詠山",
    "address": "新北市三重區集賢路158號1樓",
    "latitude": 25.089743,
    "longitude": 121.488231,
    "time": "24H"
  },
  {
    "name": "仁仁",
    "address": "新北市三重區仁愛街50號",
    "latitude": 25.072602,
    "longitude": 121.495907,
    "time": "24H"
  },
  {
    "name": "元信",
    "address": "新北市三重區元富一街45號47號1樓2樓",
    "latitude": 25.079072,
    "longitude": 121.499842,
    "time": "06:00 ~ 23:59"
  },
  {
    "name": "天勝",
    "address": "新北市三重區仁愛街687、689號1樓",
    "latitude": 25.080945,
    "longitude": 121.483276,
    "time": "24H"
  },
  {
    "name": "正大",
    "address": "新北市三重區中正北路235號",
    "latitude": 25.070634,
    "longitude": 121.475879,
    "time": "24H"
  },
  {
    "name": "正龍",
    "address": "新北市三重區正義北路332號",
    "latitude": 25.070701,
    "longitude": 121.494525,
    "time": "24H"
  },
  {
    "name": "光谷",
    "address": "新北市三重區光復路一段61巷27-1號",
    "latitude": 25.04913,
    "longitude": 121.473934,
    "time": "24H"
  },
  {
    "name": "百義",
    "address": "新北市三重區仁義街232號",
    "latitude": 25.085069,
    "longitude": 121.494489,
    "time": "24H"
  },
  {
    "name": "幸亞",
    "address": "新北市三重區溪尾街29號",
    "latitude": 25.075527,
    "longitude": 121.491461,
    "time": "24H"
  },
  {
    "name": "幸福",
    "address": "新北市三重區自強路一段272號",
    "latitude": 25.067756,
    "longitude": 121.492084,
    "time": "24H"
  },
  {
    "name": "長壽",
    "address": "新北市三重區正義北路198號200號1樓",
    "latitude": 25.067071,
    "longitude": 121.496237,
    "time": "24H"
  },
  {
    "name": "美吉",
    "address": "新北市三重區集美街223號225號",
    "latitude": 25.054947,
    "longitude": 121.491999,
    "time": "06:00 ~ 23:59"
  },
  {
    "name": "重新",
    "address": "新北市三重區重新路四段45號",
    "latitude": 25.057592,
    "longitude": 121.487981,
    "time": "06:00 ~ 23:59"
  },
  {
    "name": "頂崁",
    "address": "新北市三重區光復路一段82號1樓",
    "latitude": 25.050355,
    "longitude": 121.471783,
    "time": "24H"
  },
  {
    "name": "湯城",
    "address": "新北市三重區重新路五段609巷16之7 號1樓",
    "latitude": 25.046375,
    "longitude": 121.467711,
    "time": "07:00 ~ 23:00"
  },
  {
    "name": "華陽",
    "address": "新北市三重區中華路45、47號",
    "latitude": 25.061857,
    "longitude": 121.483573,
    "time": "24H"
  },
  {
    "name": "集吉",
    "address": "新北市三重區三賢街61號63號1樓",
    "latitude": 25.088844,
    "longitude": 121.489177,
    "time": "24H"
  },
  {
    "name": "集成",
    "address": "新北市三重區環河南路254巷43之1、43之2號",
    "latitude": 25.051622,
    "longitude": 121.48933,
    "time": "24H"
  },
  {
    "name": "雲鼎",
    "address": "新北市三重區忠孝路三段151號1樓2樓",
    "latitude": 25.062889,
    "longitude": 121.479737,
    "time": "06:00 ~ 23:59"
  },
  {
    "name": "義強",
    "address": "新北市三重區正義北路131.133號",
    "latitude": 25.066261,
    "longitude": 121.496856,
    "time": "24H"
  },
  {
    "name": "福濱",
    "address": "新北市三重區龍濱路51號53號1樓",
    "latitude": 25.068811,
    "longitude": 121.502767,
    "time": "24H"
  },
  {
    "name": "一詮",
    "address": "新北市新莊區新知八路32號",
    "latitude": 25.062827,
    "longitude": 121.455089,
    "time": "06:00 ~ 23:59"
  },
  {
    "name": "中央",
    "address": "新北市新莊區中平路439號B1樓",
    "latitude": 25.056531,
    "longitude": 121.443795,
    "time": "07:00 ~ 20:00"
  },
  {
    "name": "五工",
    "address": "新北市新莊區五工二路89號及91號1樓",
    "latitude": 25.06653,
    "longitude": 121.459367,
    "time": "24H"
  },
  {
    "name": "宏全",
    "address": "新北市新莊區中和街61號",
    "latitude": 25.046984,
    "longitude": 121.447462,
    "time": "24H"
  },
  {
    "name": "昌原",
    "address": "新北市新莊區中原路137之1之2之3號1樓",
    "latitude": 25.054231,
    "longitude": 121.454714,
    "time": "24H"
  },
  {
    "name": "品嘉",
    "address": "新北市新莊區新樹路69之4號之5號1樓",
    "latitude": 25.030067,
    "longitude": 121.439091,
    "time": "06:00 ~ 00:00"
  },
  {
    "name": "美福",
    "address": "新北市新莊區頭興街186號188號",
    "latitude": 25.053667,
    "longitude": 121.460903,
    "time": "24H"
  },
  {
    "name": "茂源",
    "address": "新北市新莊區思源路40-1號",
    "latitude": 25.043394,
    "longitude": 121.4602,
    "time": "24H"
  },
  {
    "name": "原成",
    "address": "新北市新莊區化成路305號1樓",
    "latitude": 25.055453,
    "longitude": 121.465848,
    "time": "24H"
  },
  {
    "name": "迴龍站",
    "address": "新北市新莊區中正路895號895號之1號",
    "latitude": 25.022016,
    "longitude": 121.41241,
    "time": "24H"
  },
  {
    "name": "莊龍",
    "address": "新北市新莊區龍安路66號68號",
    "latitude": 25.021506,
    "longitude": 121.415189,
    "time": "06:00 ~ 23:59"
  },
  {
    "name": "都峰苑",
    "address": "新北市新莊區中央路686號1樓",
    "latitude": 25.057378,
    "longitude": 121.446209,
    "time": "24H"
  },
  {
    "name": "傑出",
    "address": "新北市新莊區昌平街61號63號1樓",
    "latitude": 25.053273,
    "longitude": 121.454602,
    "time": "24H"
  },
  {
    "name": "富誠",
    "address": "新北市新莊區中誠街2號4號",
    "latitude": 25.048228,
    "longitude": 121.452438,
    "time": "24H"
  },
  {
    "name": "復和",
    "address": "新北市新莊區復興路一段79號81號1樓",
    "latitude": 25.042754,
    "longitude": 121.448196,
    "time": "24H"
  },
  {
    "name": "意幼",
    "address": "新北市新莊區後港一路173號1樓",
    "latitude": 25.028349,
    "longitude": 121.432533,
    "time": "24H"
  },
  {
    "name": "新宏盛",
    "address": "新北市新莊區後港一路114號",
    "latitude": 25.026981,
    "longitude": 121.428626,
    "time": "06:00 ~ 23:59"
  },
  {
    "name": "榮富",
    "address": "新北市新莊區中榮街43號47號",
    "latitude": 25.05267,
    "longitude": 121.449726,
    "time": "24H"
  },
  {
    "name": "福基",
    "address": "新北市新莊區五工路68巷5.7號1樓",
    "latitude": 25.06394,
    "longitude": 121.458273,
    "time": "24H"
  },
  {
    "name": "季欣",
    "address": "新北市泰山區全興路109號",
    "latitude": 25.056753,
    "longitude": 121.433772,
    "time": "06:00 ~ 23:59"
  },
  {
    "name": "明貴",
    "address": "新北市泰山區明志路三段44號46號1樓",
    "latitude": 25.04243,
    "longitude": 121.424698,
    "time": "06:00 ~ 23:59"
  },
  {
    "name": "奕真",
    "address": "新北市泰山區明志路二段185號1樓(部份)",
    "latitude": 25.049799,
    "longitude": 121.427801,
    "time": "24H"
  },
  {
    "name": "貴賢",
    "address": "新北市泰山區明志路三段165號1樓2樓、167號1樓",
    "latitude": 25.039438,
    "longitude": 121.424667,
    "time": "24H"
  },
  {
    "name": "楓江",
    "address": "新北市泰山區楓江路39之1號39之2號1樓",
    "latitude": 25.062574,
    "longitude": 121.435047,
    "time": "06:00 ~ 00:59"
  },
  {
    "name": "寶盈",
    "address": "新北市泰山區明志路三段334號336號338號340號",
    "latitude": 25.035534,
    "longitude": 121.422055,
    "time": "07:00 ~ 23:00"
  },
  {
    "name": "仁森",
    "address": "新北市林口區粉寮路1段62、64號1樓",
    "latitude": 25.078537,
    "longitude": 121.397075,
    "time": "24H"
  },
  {
    "name": "未央",
    "address": "新北市林口區文化三路二段283.283-1號",
    "latitude": 25.086146,
    "longitude": 121.378502,
    "time": "06:00 ~ 23:59"
  },
  {
    "name": "正翔",
    "address": "新北市林口區中正路285.287號",
    "latitude": 25.077616,
    "longitude": 121.389635,
    "time": "24H"
  },
  {
    "name": "民視",
    "address": "新北市林口區信義路101號1樓",
    "latitude": 25.079026,
    "longitude": 121.379786,
    "time": "07:00 ~ 22:59"
  },
  {
    "name": "幸福市",
    "address": "新北市林口區文化三路二段302號1樓",
    "latitude": 25.084408,
    "longitude": 121.377807,
    "time": "24H"
  },
  {
    "name": "忠柯",
    "address": "新北市林口區忠孝路642號",
    "latitude": 25.068366,
    "longitude": 121.378689,
    "time": "24H"
  },
  {
    "name": "東學",
    "address": "新北市林口區東湖路100號1樓",
    "latitude": 25.073779,
    "longitude": 121.385248,
    "time": "24H"
  },
  {
    "name": "林口三井",
    "address": "新北市林口區文化二路一段123號1樓",
    "latitude": 25.068984,
    "longitude": 121.365291,
    "time": "08:00 ~ 22:00"
  },
  {
    "name": "林旺",
    "address": "新北市林口區仁愛路二段196號1樓",
    "latitude": 25.073869,
    "longitude": 121.379993,
    "time": "24H"
  },
  {
    "name": "長坤",
    "address": "新北市林口區文化一路一段43號1樓",
    "latitude": 25.06971,
    "longitude": 121.370838,
    "time": "06:00 ~ 23:00"
  },
  {
    "name": "長曜",
    "address": "新北市林口區文化三路一段249巷36號.38號1樓",
    "latitude": 25.072236,
    "longitude": 121.362917,
    "time": "06:00 ~ 23:59"
  },
  {
    "name": "朗廷會",
    "address": "新北市林口區文化三路二段91號1樓",
    "latitude": 25.080895,
    "longitude": 121.374614,
    "time": "06:00 ~ 23:59"
  },
  {
    "name": "遠來",
    "address": "新北市林口區仁愛路二段510號1樓",
    "latitude": 25.077451,
    "longitude": 121.374057,
    "time": "24H"
  },
  {
    "name": "霖口",
    "address": "新北市林口區中山路250號250之3號1樓",
    "latitude": 25.079591,
    "longitude": 121.385929,
    "time": "06:00 ~ 23:59"
  },
  {
    "name": "麗寶",
    "address": "新北市林口區文化北路一段301號1樓",
    "latitude": 25.07304,
    "longitude": 121.360279,
    "time": "24H"
  },
  {
    "name": "統吉",
    "address": "新北市蘆洲區永平街32巷12弄1號",
    "latitude": 25.091532,
    "longitude": 121.459171,
    "time": "24H"
  },
  {
    "name": "陽州",
    "address": "新北市蘆洲區重陽街92.96號1樓",
    "latitude": 25.084642,
    "longitude": 121.482141,
    "time": "24H"
  },
  {
    "name": "旗開",
    "address": "新北市蘆洲區中央路181號1樓及復興路16號1樓",
    "latitude": 25.085179,
    "longitude": 121.472027,
    "time": "24H"
  },
  {
    "name": "鷺江",
    "address": "新北市蘆洲區長榮路679號1樓",
    "latitude": 25.092132,
    "longitude": 121.460209,
    "time": "24H"
  },
  {
    "name": "工商",
    "address": "新北市五股區工商路153號153-1號1樓",
    "latitude": 25.086438,
    "longitude": 121.434912,
    "time": "06:00 ~ 23:59"
  },
  {
    "name": "成泰",
    "address": "新北市五股區成泰路二段84號1樓",
    "latitude": 25.082371,
    "longitude": 121.437654,
    "time": "06:00 ~ 23:59"
  },
  {
    "name": "欣順",
    "address": "新北市五股區成泰路一段239-9號1.2樓",
    "latitude": 25.08077,
    "longitude": 121.436669,
    "time": "06:00 ~ 23:59"
  },
  {
    "name": "股興",
    "address": "新北市五股區中興路一段3號、3-1號",
    "latitude": 25.072192,
    "longitude": 121.469614,
    "time": "24H"
  },
  {
    "name": "泰肱",
    "address": "新北市五股區成泰路三段545號547號1樓",
    "latitude": 25.1018,
    "longitude": 121.451848,
    "time": "06:00 ~ 00:00"
  },
  {
    "name": "富美",
    "address": "新北市五股區五股工業區五權路23號",
    "latitude": 25.066603,
    "longitude": 121.449819,
    "time": "24H"
  },
  {
    "name": "富得",
    "address": "新北市五股區五權路48號1樓",
    "latitude": 25.06857,
    "longitude": 121.453212,
    "time": "06:00 ~ 23:29"
  },
  {
    "name": "新台",
    "address": "新北市五股區五工六路14號",
    "latitude": 25.062215,
    "longitude": 121.450745,
    "time": "24H"
  },
  {
    "name": "Fresh橋港",
    "address": "新北市八里區商港八路1號1樓",
    "latitude": 25.148698,
    "longitude": 121.401404,
    "time": "24H"
  },
  {
    "name": "八里",
    "address": "新北市八里區中山路二段343號1樓",
    "latitude": 25.147106,
    "longitude": 121.399459,
    "time": "24H"
  },
  {
    "name": "大崁",
    "address": "新北市八里區龍米路三段50號52號56號",
    "latitude": 25.159243,
    "longitude": 121.424621,
    "time": "24H"
  },
  {
    "name": "里商",
    "address": "新北市八里區商港三路99、101號",
    "latitude": 25.153233,
    "longitude": 121.402,
    "time": "24H"
  },
  {
    "name": "天元",
    "address": "新北市淡水區北新路三段30號1樓",
    "latitude": 25.186538,
    "longitude": 121.483788,
    "time": "06:00 ~ 23:59"
  },
  {
    "name": "竹捷",
    "address": "新北市淡水區竹圍里民族路10號",
    "latitude": 25.136781,
    "longitude": 121.460537,
    "time": "24H"
  },
  {
    "name": "金旦",
    "address": "新北市淡水區淡金路三段254號256號258號",
    "latitude": 25.20643,
    "longitude": 121.449056,
    "time": "24H"
  },
  {
    "name": "金崙",
    "address": "新北市淡水區沙崙路24號1樓",
    "latitude": 25.181224,
    "longitude": 121.421458,
    "time": "24H"
  },
  {
    "name": "金寶",
    "address": "新北市淡水區中正路169號",
    "latitude": 25.171117,
    "longitude": 121.438741,
    "time": "24H"
  },
  {
    "name": "紅林站",
    "address": "新北市淡水區中正東路二段65號",
    "latitude": 25.15463,
    "longitude": 121.459667,
    "time": "06:00 ~ 23:59"
  },
  {
    "name": "淡水銀河",
    "address": "新北市淡水區新市一路一段178號1樓",
    "latitude": 25.186298,
    "longitude": 121.432746,
    "time": "24H"
  },
  {
    "name": "淡海",
    "address": "新北市淡水區淡海路178號1樓",
    "latitude": 25.184041,
    "longitude": 121.42062,
    "time": "24H"
  },
  {
    "name": "渡船頭",
    "address": "新北市淡水區中正路號55號及55-1號",
    "latitude": 25.169478,
    "longitude": 121.441816,
    "time": "24H"
  },
  {
    "name": "聖約翰",
    "address": "新北市淡水區淡金路四段532號、534號1樓",
    "latitude": 25.226736,
    "longitude": 121.452032,
    "time": "24H"
  },
  {
    "name": "鑫馬偕",
    "address": "新北市淡水區民權路47號",
    "latitude": 25.139527,
    "longitude": 121.460461,
    "time": "24H"
  },
  {
    "name": "三芝",
    "address": "新北市三芝區中正路一段61號63號1樓",
    "latitude": 25.257853,
    "longitude": 121.503445,
    "time": "24H"
  },
  {
    "name": "芝加灣",
    "address": "新北市三芝區錫板里海尾14-35號1樓2樓3樓",
    "latitude": 25.259205,
    "longitude": 121.477208,
    "time": "24H"
  },
  {
    "name": "淺水灣",
    "address": "新北市三芝區中柳村北勢子42之11號1樓",
    "latitude": 25.252433,
    "longitude": 121.47232,
    "time": "24H"
  },
  {
    "name": "A18",
    "address": "桃園市中壢區高鐵北路一段5號B1樓",
    "latitude": 25.013844,
    "longitude": 121.214621,
    "time": "06:30 ~ 23:00"
  },
  {
    "name": "Fresh青塘",
    "address": "桃園市中壢區青昇路318號320號",
    "latitude": 25.01517,
    "longitude": 121.220293,
    "time": "24H"
  },
  {
    "name": "NCU",
    "address": "桃園市中壢區中大路300號(中大會館旁)",
    "latitude": 24.970598,
    "longitude": 121.195777,
    "time": "08:00 ~ 17:00"
  },
  {
    "name": "三光",
    "address": "桃園市中壢區中央西路二段259號259-1號1樓",
    "latitude": 24.96125,
    "longitude": 121.211803,
    "time": "24H"
  },
  {
    "name": "大崙",
    "address": "桃園市中壢區中正路四段35號",
    "latitude": 24.987996,
    "longitude": 121.181458,
    "time": "24H"
  },
  {
    "name": "中大松果",
    "address": "桃園市中壢區中大路300號(松果餐廳)",
    "latitude": 24.965636,
    "longitude": 121.195409,
    "time": "09:00 ~ 17:00"
  },
  {
    "name": "中大智能",
    "address": "桃園市中壢區中大路300號(女十四舍B1)",
    "latitude": 24.965723,
    "longitude": 121.194355,
    "time": "24H"
  },
  {
    "name": "中壢光環",
    "address": "桃園市中壢區環中東路48號50號1樓",
    "latitude": 24.966166,
    "longitude": 121.259377,
    "time": "24H"
  },
  {
    "name": "元勛",
    "address": "桃園市中壢區晉元路195號1樓",
    "latitude": 24.950742,
    "longitude": 121.261208,
    "time": "24H"
  },
  {
    "name": "弘揚",
    "address": "桃園市中壢區弘揚路47號1樓",
    "latitude": 24.953359,
    "longitude": 121.240408,
    "time": "24H"
  },
  {
    "name": "立京",
    "address": "桃園市中壢區五族二街66號68號1樓",
    "latitude": 24.958691,
    "longitude": 121.204497,
    "time": "24H"
  },
  {
    "name": "立莊",
    "address": "桃園市中壢區莊敬路805號普騰街38巷18號1樓",
    "latitude": 24.964436,
    "longitude": 121.255216,
    "time": "24H"
  },
  {
    "name": "芊莆",
    "address": "桃園市中壢區永信路287號289號291號",
    "latitude": 25.011602,
    "longitude": 121.203811,
    "time": "06:00 ~ 23:29"
  },
  {
    "name": "忠敬",
    "address": "桃園市中壢區精忠一街1號1樓",
    "latitude": 24.970842,
    "longitude": 121.25708,
    "time": "24H"
  },
  {
    "name": "松容",
    "address": "桃園市中壢區青溪路一段85號",
    "latitude": 25.006028,
    "longitude": 121.222805,
    "time": "24H"
  },
  {
    "name": "欣民",
    "address": "桃園市中壢區民權路三段985號",
    "latitude": 24.986651,
    "longitude": 121.207981,
    "time": "06:00 ~ 23:29"
  },
  {
    "name": "政群",
    "address": "桃園市中壢區中園路二段138號",
    "latitude": 24.992395,
    "longitude": 121.234242,
    "time": "24H"
  },
  {
    "name": "美家",
    "address": "桃園市中壢區中北路34號36號1樓",
    "latitude": 24.955816,
    "longitude": 121.236507,
    "time": "24H"
  },
  {
    "name": "家權",
    "address": "桃園市中壢區民權路二段98號",
    "latitude": 24.96725,
    "longitude": 121.216112,
    "time": "24H"
  },
  {
    "name": "桃園高鐵",
    "address": "桃園市中壢區青埔里高鐵北路一段6號1樓",
    "latitude": 25.013185,
    "longitude": 121.215028,
    "time": "06:30 ~ 23:59"
  },
  {
    "name": "高進",
    "address": "桃園市中壢區環北路196號",
    "latitude": 24.966087,
    "longitude": 121.222114,
    "time": "24H"
  },
  {
    "name": "高萱",
    "address": "桃園市中壢區高鐵南路二段369號1樓",
    "latitude": 25.001171,
    "longitude": 121.203443,
    "time": "24H"
  },
  {
    "name": "統上",
    "address": "桃園市中壢區新中北路457號459號",
    "latitude": 24.9582,
    "longitude": 121.244721,
    "time": "24H"
  },
  {
    "name": "莊壢",
    "address": "桃園市中壢區莊敬路199號",
    "latitude": 24.966461,
    "longitude": 121.257317,
    "time": "24H"
  },
  {
    "name": "創薪",
    "address": "桃園市中壢區龍昌路270號1號",
    "latitude": 24.935523,
    "longitude": 121.249412,
    "time": "24H"
  },
  {
    "name": "富展",
    "address": "桃園市中壢區復華九街71號",
    "latitude": 24.975456,
    "longitude": 121.248078,
    "time": "07:00 ~ 23:00"
  },
  {
    "name": "富莊",
    "address": "桃園市中壢區莊敬路141號",
    "latitude": 24.96786,
    "longitude": 121.257343,
    "time": "24H"
  },
  {
    "name": "華薪",
    "address": "桃園市中壢區新中北路二段179號181號",
    "latitude": 24.956203,
    "longitude": 121.261748,
    "time": "24H"
  },
  {
    "name": "塘園",
    "address": "桃園市中壢區領航北路二段208號公園路二段208號",
    "latitude": 25.008879,
    "longitude": 121.204672,
    "time": "06:00 ~ 23:59"
  },
  {
    "name": "新中北",
    "address": "桃園市中壢區新中北路1018-1號1樓",
    "latitude": 24.956832,
    "longitude": 121.255736,
    "time": "24H"
  },
  {
    "name": "新中華",
    "address": "桃園市中壢區中華路二段328號",
    "latitude": 24.964544,
    "longitude": 121.236376,
    "time": "24H"
  },
  {
    "name": "新元",
    "address": "桃園市中壢區新生路232號234號",
    "latitude": 24.962869,
    "longitude": 121.223168,
    "time": "06:00 ~ 23:59"
  },
  {
    "name": "新昇",
    "address": "桃園市中壢區新生路四段28.30號1樓",
    "latitude": 25.004902,
    "longitude": 121.213651,
    "time": "24H"
  },
  {
    "name": "新福街",
    "address": "桃園市中壢區福州二街392號1樓",
    "latitude": 24.967648,
    "longitude": 121.231666,
    "time": "24H"
  },
  {
    "name": "新壢智",
    "address": "桃園市中壢區興仁路二段57號1樓",
    "latitude": 24.967354,
    "longitude": 121.262643,
    "time": "24H"
  },
  {
    "name": "萬能",
    "address": "桃園市中壢區萬能路1號",
    "latitude": 24.990861,
    "longitude": 121.231508,
    "time": "07:00 ~ 22:00"
  },
  {
    "name": "萬能科",
    "address": "桃園市中壢區萬能路1之2號1樓",
    "latitude": 24.992295,
    "longitude": 121.23015,
    "time": "07:00 ~ 23:00"
  },
  {
    "name": "鼎藏",
    "address": "桃園市中壢區興仁路二段646號",
    "latitude": 24.957603,
    "longitude": 121.264479,
    "time": "24H"
  },
  {
    "name": "榮躍",
    "address": "桃園市中壢區榮民南路462號464號",
    "latitude": 24.947145,
    "longitude": 121.25659,
    "time": "06:00 ~ 23:59"
  },
  {
    "name": "福州一",
    "address": "桃園市中壢區福州一街102號1樓",
    "latitude": 24.965116,
    "longitude": 121.231814,
    "time": "24H"
  },
  {
    "name": "福記",
    "address": "桃園市中壢區林森路166號168號",
    "latitude": 24.944374,
    "longitude": 121.22661,
    "time": "24H"
  },
  {
    "name": "福瑞",
    "address": "桃園市中壢區信義里福州路201號",
    "latitude": 24.94998,
    "longitude": 121.234331,
    "time": "24H"
  },
  {
    "name": "學屋",
    "address": "桃園市中壢區民族路三段400號402號406號1樓",
    "latitude": 24.9605,
    "longitude": 121.190132,
    "time": "24H"
  },
  {
    "name": "興榮珍",
    "address": "桃園市中壢區興仁路二段200之1號;198巷1之3號1樓",
    "latitude": 24.964689,
    "longitude": 121.263436,
    "time": "24H"
  },